"","site_name","latitude","longitude","region","country","county","com_type","commod1","commod2","commod3","oper_type","dep_type","prod_size","dev_stat","ore","gangue","work_type","names","ore_ctrl","hrock_type","arock_type"
"1","Lookout Prospect",55.05612,-132.14344,NA,"United States","","M","Copper","Gold, Silver","","Unknown","","N","Occurrence","Chalcopyrite, Covellite, Pyrite","Quartz, Sericite","","Conundrum, Mammoth, Wakefield Minerals Co.","","Schist",""
"2","Lucky Find Prospect",55.52751,-132.68514,NA,"United States","","M","Copper","Gold","","Unknown","","N","Occurrence","Chalcopyrite, Pyrite","Calcite, Quartz, Siderite","Underground","","Vein Follows Contact","Diabase",""
"3","Mccullough Prospect",55.97751,-132.99906,NA,"United States","","M","Copper","","Zinc, Gold","Unknown","","N","Occurrence","Chalcopyrite, Pyrite, Sphalerite","Quartz","","Claims: Horseshoe, Copper, Lake Bay","","Siltstone",""
"4","Lucky Jim Claim",55.52195,-132.68653,NA,"United States","","M","Gold","","Copper, Lead","Unknown","","N","Occurrence","Galena, Malachite, Pyrite","","","","","Granite","Granite"
"5","Matilda Occurrence",55.14556,-132.05233,NA,"United States","","M","Gold","","","Unknown","","N","Occurrence","Pyrite","","","","","Mica Schist",""
"6","Marion Prospect",55.14695,-132.48512,NA,"United States","","M","Copper","","Lead","Unknown","","N","Occurrence","Chalcopyrite, Galena, Pyrite","","Underground","Nutqua Gold Mining Co.","","Schist",""
"7","Marble Heart Prospect",55.3289,-132.76013,NA,"United States","","M","Lead","","","Unknown","","N","Occurrence","Galena","","","","","Limestone",""
"8","Morning Star Prospect",55.56362,-132.45042,NA,"United States","","M","Gold","Copper","Iron","Unknown","","N","Occurrence","Chalcopyrite, Magnetite, Pyrite","","","","","",""
"9","Monday Prospect",55.50529,-132.63237,NA,"United States","","M","Silver","Gold","Lead","Unknown","Vein","N","Occurrence","Galena, Pyrite","Quartz, Vesuvianite","","","","Slate","Andesite"
"10","Miller Brothers Claim",55.22334,-132.63513,NA,"United States","","M","Copper","","","Unknown","","N","Occurrence","","","","","","",""
"11","Miller Brothers Claim",55.22334,-132.63513,NA,"United States","","M","Gold","","","Unknown","","N","Occurrence","","","","","","",""
"12","Midnight Sun Prospect",55.65252,-132.02541,NA,"United States","","M","Gold","","","Unknown","","N","Occurrence","Pyrite","","","","","Greenschist",""
"13","Moonshine Occurrence",55.08583,-133.17125,NA,"United States","","M","Silver","Lead","","Unknown","","N","Occurrence","Galena","","","","","",""
"14","Moonshine Prospect",55.14445,-132.05371,NA,"United States","","M","Gold","","Copper","Unknown","","N","Occurrence","Chalcopyrite, Pyrite, Tetrahedrite","","","","Near Contact Between Limestone And Quartzite","Limestone",""
"15","Edith M. Prospect",55.06223,-132.13538,NA,"United States","","M","Gold","","Copper","Unknown","","N","Occurrence","Chalcopyrite, Pyrite","","Underground","","","Greenschist",""
"16","Jumbo Prosect",55.14195,-132.05177,NA,"United States","","M","Gold","Silver","","Unknown","","N","Occurrence","Tetrahedrite","","Underground","","","Phyllite",""
"17","Hula Hula Claim",55.15501,-132.15872,NA,"United States","","M","Gold","","","Unknown","","N","Occurrence","Gold","","","","","",""
"18","Unnamed Occurrence",55.29973,-132.70041,NA,"United States","","M","Copper","","","Unknown","","N","Occurrence","Chalcopyrite, Pyrite","","","","","Limestone",""
"19","Unnamed Occurrance",55.51223,-132.53098,NA,"United States","","M","Copper","","","Unknown","","N","Occurrence","Chalcopyrite, Pyrite","","","","Skarn Follows Contact","Mica Schist","Diorite"
"20","Hatchet Occurrence",55.43584,-132.46013,NA,"United States","","M","Gold","","","Unknown","","N","Occurrence","Gold, Pyrite","","","","","Slate",""
"21","Beauty",55.14084,-132.05038,NA,"United States","","M","Silver","Gold, Copper","","Unknown","","N","Occurrence","Chalcopyrite, Malachite, Pyrite, Tetrahedrite","","Underground","","","Limestone",""
"22","Hole In the Wall Prospects",55.53029,-132.31152,NA,"United States","","M","Copper","","","Unknown","","N","Occurrence","","Calcite, Epidote, Garnet, Magnetite","","Claims: Eureka, Fredricks, Hilma, Pelaska, Pennsylvania, Plunley, Sunrise, Nuckolls","Mineralization Follows Limestone-Diorite Contact","Limestone","Diorite"
"23","Brown and Metzdorf Prospect",55.58862,-132.47959,NA,"United States","","M","Copper","","Molybdenum, Gold, Silver","Unknown","","N","Occurrence","Molybdenite, Pyrite","Epidote, Garnet","","","Basic Dike Forms Footwall Of Deposit","Quartzite","Limestone"
"24","Copper King Prospect",55.55667,-132.4393,NA,"United States","","M","Copper","Gold","Iron","Unknown","","N","Occurrence","Chalcopyrite, Magnetite, Pyrite","Calcite, Epidote, Quartz","Surface/Underground","","","Greenstone",""
"25","Unnamed Occurrence",55.48445,-132.52819,NA,"United States","","M","Copper","","","Unknown","","N","Occurrence","Chalcopyrite","","","","Mineralized Contact","Limestone","Diorite"
"26","Gould Prospect",55.21362,-132.60457,NA,"United States","","M","Copper","","","Unknown","Contact Metasomatic","N","Occurrence","Chalcopyrite, Pyrite, Pyrrhotite","Epidote, Garnet","","","Ore Body Follows Contact","Quartzite","Diorite"
"27","Gladstone Prospect",55.21112,-132.06011,NA,"United States","","M","Copper","","Silver, Gold","Unknown","","N","Occurrence","Chalcopyrite, Pyrite","Calcite, Graphite, Quartz","","","","Limestone","Diabase"
"28","Hetta Mountain Prospects",55.19973,-132.56846,NA,"United States","","M","Copper","Zinc","Silver, Gold, Molybdenum, Cobalt","Unknown","","N","Occurrence","Chalcopyrite, Sphalerite","Diopside, Garnet, Pyrite, Pyrrhotite, Quartz","","","Northern Prospect Follows Dike","Skarn (Tactite)","Diorite"
"29","Unnamed Occurrence",55.57751,-132.64209,NA,"United States","","M","Copper","Lead","Tungsten","Unknown","","N","Occurrence","Chalcopyrite, Galena, Pyrite, Pyrrhotite, Scheelite","","","","","Schist","Diorite"
"30","Coleman",55.56084,-132.42958,NA,"United States","","M","Copper","","","Unknown","Unknown","N","Occurrence","","","","Blackbird, Kansas","","",""
"31","Constitution Prospect",55.54001,-132.8046,NA,"United States","","M","Gold","Copper","Lead, Zinc","Unknown","","N","Occurrence","Chalcopyrite, Gold, Pyrite","","Surface/Underground","","","Amphibolite","Gabbro"
"32","Unnamed Occurrence",55.52749,-133.63656,NA,"United States","","M","Copper","","Molybdenum, Nickel","Unknown","","N","Occurrence","Chalcopyrite, Pyrrhotite","","","","","Schist","Granite"
"33","Cutter Prospect",55.52751,-132.67125,NA,"United States","","M","Gold","","","Unknown","Unknown","N","Occurrence","","","","","","Diabase","Diabase"
"34","Dama Prospects",55.05473,-132.1226,NA,"United States","","M","Copper","","Gold","Unknown","","N","Occurrence","Chalcopyrite, Pyrite","","Underground","Trio, Copper Cliff","Mineralized Zones Follow Trend Of Schist","Greenschist",""
"35","Dew Drop Prospect",55.51779,-132.7907,NA,"United States","","M","Gold","","Copper, Lead","Unknown","","N","Occurrence","Chalcopyrite, Galena, Pyrite","","","Rose","","Plutonic Rock",""
"36","Dew Drop Prospect",55.51779,-132.7907,NA,"United States","","M","Silver","","Copper, Lead","Unknown","","N","Occurrence","Chalcopyrite, Galena, Pyrite","","","Rose","","Plutonic Rock",""
"37","Fortune Prospect",55.14417,-132.05121,NA,"United States","","M","Gold","Copper","","Unknown","","N","Occurrence","Chalcopyrite, Gold, Pyrite, Tetrahedrite","","","Fortuna","","Limestone",""
"38","Flagstaff Mining Co.",55.53584,-132.66431,NA,"United States","","M","Gold","Copper, Lead, Silver","Zinc","Unknown","","S","Past Producer","Chalcocite, Chalcopyrite, Copper, Covellite, Galena, Gold, Pyrite, Sphalerite","","Surface/Underground","Treasure, Last Chance","","Diorite","Diorite,Diabase"
"39","Golden Fleece Mining Co.",55.15084,-132.05788,NA,"United States","","M","Gold","Silver","","Unknown","","S","Past Producer","Gold, Pyrite, Tetrahedrite","","Surface/Underground","Beulah, Copper Lake","Veins Follow Blue Limestone-White Limestone Contact","Limestone","Diabase"
"40","Buckhorn Claims",55.53445,-132.68237,NA,"United States","","M","Gold","","","Unknown","","N","Occurrence","Gold","","","","","Granite","Granite"
"41","Keystone Prospect",55.6178,-132.04346,NA,"United States","","M","Gold","","","Unknown","Stockwork","N","Occurrence","Pyrite","","Underground","London","","Schist",""
"42","Keystone Prospect",55.6178,-132.04346,NA,"United States","","M","Silver","","","Unknown","Stockwork","N","Occurrence","Pyrite","","Underground","London","","Schist",""
"43","Ketchikan Copper Co.",55.21279,-132.32318,NA,"United States","","M","Lead","Silver, Gold","","Unknown","","N","Occurrence","Galena, Sphalerite","Chlorite, Quartz, Sericite","Surface/Underground","Polymetal Lode, Research","","Schist",""
"44","Ketchikan Copper Co.",55.21279,-132.32318,NA,"United States","","M","Zinc","Silver, Gold","","Unknown","","N","Occurrence","Galena, Sphalerite","Chlorite, Quartz, Sericite","Surface/Underground","Polymetal Lode, Research","","Schist",""
"45","Helm Bay King Mining Co.",55.67474,-132.04902,NA,"United States","","M","Gold","","Lead, Copper","Unknown","","S","Past Producer","Chalcopyrite, Galena, Gold","Calcite, Chlorite, Quartz","","Alaska Vein, Bonanza Vein","","Greenschist",""
"46","Moonshine Mine",55.16917,-132.38651,NA,"United States","","M","Silver","Lead","Copper, Zinc","Unknown","","S","Past Producer","Chalcopyrite, Galena, Sphalerite","Calcite, Pyrite, Quartz","Surface/Underground","Alaska Galena Co.","","Limestone",""
"47","Cascade Mine",55.48029,-132.73653,NA,"United States","","M","Gold","","Copper, Lead, Zinc, Silver","Unknown","","S","Past Producer","Chalcopyrite, Galena, Pyrite, Sphalerite","","Surface/Underground","","","Mafic Intrusive Rock","Mafic Intrusive Rock"
"48","Unnamed Prospect",55.27751,-132.61569,NA,"United States","","M","Lead","Zinc","Copper","Unknown","","N","Occurrence","Chalcopyrite, Galena, Sphalerite","Calcite, Epidote, Garnet, Quartz, Wollastonite","","","","Limestone",""
"49","Unnamed Occurrence",55.04723,-132.0951,NA,"United States","","M","Gold","","","Unknown","","N","Occurrence","","","","","","Volcanic Rock (Aphanitic)",""
"50","House Occurrence",55.14445,-132.0576,NA,"United States","","M","Copper","","","Unknown","","N","Occurrence","Chalcopyrite, Tetrahedrite","Pyrite, Quartz","","","","Limestone",""
"51","Haida Copper Co.",55.60529,-132.49209,NA,"United States","","M","Copper","","Gold, Silver, Molybdenum","Unknown","","N","Occurrence","Chalcopyrite, Gold, Magnetite, Molybdenite, Silver","","","Gopher, Mammoth, Hyda","","Greenstone",""
"52","Haida Copper Co.",55.60529,-132.49209,NA,"United States","","M","Iron","","Gold, Silver, Molybdenum","Unknown","","N","Occurrence","Chalcopyrite, Gold, Magnetite, Molybdenite, Silver","","","Gopher, Mammoth, Hyda","","Greenstone",""
"53","Hope Prospect",55.16223,-132.38234,NA,"United States","","M","Zinc","","Silver","Unknown","Replacement","N","Occurrence","Galena, Sphalerite","Epidote, Garnet","","","","Schist",""
"54","Hope Prospect",55.16223,-132.38234,NA,"United States","","M","Lead","","Silver","Unknown","Replacement","N","Occurrence","Galena, Sphalerite","Epidote, Garnet","","","","Schist",""
"55","Anderson Claim",55.26501,-132.24623,NA,"United States","","M","Copper","","","Unknown","","N","Occurrence","","","","","","",""
"56","Amazon Prospect",55.14362,-132.05566,NA,"United States","","M","Gold","","","Unknown","","N","Occurrence","","","Underground","","Vein Follows Bedding","Calc-Silicate Schist",""
"57","Alexander Prospect",55.62335,-132.02262,NA,"United States","","M","Gold","","","Unknown","","N","Occurrence","","","Underground","Alexandria","","Greenstone",""
"58","Alaska Tidewater Co.",55.08305,-132.63373,NA,"United States","","M","Copper","","","Unknown","","N","Occurrence","","","","Claims: Florence, Teresa","","",""
"59","Unnamed Occurrence",55.99555,-133.45186,NA,"United States","","M","Lead","","","Unknown","","N","Occurrence","Galena","","","","Vein Follows Contact","Clastic Sedimentary Rock","Diorite"
"60","Kid Claims",55.16362,-132.13067,NA,"United States","","M","Gold","","","Unknown","","N","Occurrence","Gold","Pyrite","","Tom Boy","","Limestone",""
"61","Unnamed Occurrence",55.35527,-133.61016,NA,"United States","","M","Gold","Zinc, Lead","","Unknown","","N","Occurrence","Galena, Gold, Sphalerite","Pyrite","","","","Schist",""
"62","Unnamed Occurrence",55.08862,-132.49206,NA,"United States","","M","Copper","","","Unknown","","N","Occurrence","Bornite, Chalcopyrite","Pyrite","","","","Greenschist",""
"63","Unnamed Occurrence",55.61084,-132.61153,NA,"United States","","M","Copper","","","Unknown","","N","Occurrence","Chalcopyrite","Pyrite","","","","Argillite",""
"64","Bertha Claim",55.2914,-132.39207,NA,"United States","","M","Copper","","","Unknown","","N","Occurrence","Chalcopyrite, Pyrrhotite","","","Hecla Claim, Red Rose Claim","","",""
"65","Corbin Mine",55.2289,-132.6518,NA,"United States","","M","Copper","Gold, Silver","Zinc","Unknown","","S","Past Producer","Chalcopyrite","Calcite, Quartz","Surface/Underground","Alaska Metals Co., Corwin","","Greenstone","Diabase"
"66","Coronation Island Mining Co.",55.9136,-134.33244,NA,"United States","","M","Lead","Zinc","","Unknown","","S","Past Producer","Galena, Smithsonite, Sphalerite, Tetrahedrite","Clay, Limonite","Underground","","","Limestone","Diorite"
"67","Unnamed Prospect",55.08861,-132.69485,NA,"United States","","M","Gold","","","Unknown","","S","Past Producer","","","","","","",""
"68","Lucky Nell Mining Co.",55.51223,-132.82125,NA,"United States","","M","Gold","Silver","Copper, Lead, Zinc","Unknown","","S","Past Producer","Chalcopyrite, Galena, Sphalerite","Pyrite","Surface/Underground","Claims: Commander, Flora, Nellie, President, Red Jacket","","Diorite","Diorite"
"69","Chicago Kid Claim",55.1464,-132.05205,NA,"United States","","M","Gold","","","Unknown","","N","Occurrence","Tetrahedrite","Pyrite","","","","Limestone",""
"70","Clipper Prospect",55.52195,-132.6657,NA,"United States","","M","Gold","","","Unknown","","N","Occurrence","","","","","Vein Follows Dike","Diabase","Granite"
"71","Anderson Prospect",55.3414,-132.37957,NA,"United States","","M","Copper","","","Unknown","","N","Occurrence","Chalcopyrite","","","","","Greenschist",""
"72","Earl No. 1 Occurrence",55.25112,-132.48096,NA,"United States","","M","Gold","","","Unknown","","N","Occurrence","","","","","","Schist",""
"73","Skookum Prospect",55.52751,-132.34763,NA,"United States","","M","Gold","","Copper","Unknown","","N","Occurrence","Chalcopyrite","","","Elm City","Both Sides Of Ore Body Are Bounded By Faults","Diorite","Diorite"
"74","Unnamed Occurrence",55.51084,-132.42819,NA,"United States","","M","Iron","","","Unknown","","N","Occurrence","Magnetite","","","","","Argillite",""
"75","Unnamed Prospect",55.62751,-132.38514,NA,"United States","","M","Copper","Gold","","Unknown","","N","Occurrence","","","","","","",""
"76","Copper Queen Prospect",55.53306,-132.37541,NA,"United States","","M","Copper","","","Unknown","Contact Metamorphic","N","Occurrence","Chalcopyrite, Magnetite","Calcite, Chlorite, Epidote, Pyrite","Surface/Underground","Kasaan Bay Mining Company","","Greenstone","Syenite"
"77","Copper Queen Prospect",55.53306,-132.37541,NA,"United States","","M","Iron","","","Unknown","Contact Metamorphic","N","Occurrence","Chalcopyrite, Magnetite","Calcite, Chlorite, Epidote, Pyrite","Surface/Underground","Kasaan Bay Mining Company","","Greenstone","Syenite"
"78","Juneau Claims",55.55251,-132.67959,NA,"United States","","M","Gold","","","Unknown","","N","Occurrence","","","","","","Granite","Granite"
"79","Gould Prospect",55.00111,-132.76985,NA,"United States","","M","Copper","","","Unknown","","N","Occurrence","Chalcopyrite, Pyrrhotite","Pyrite","","","Mineralization Along Contact","Schist","Granite"
"80","Cymru Mine",55.1364,-132.19984,NA,"United States","","M","Copper","Gold","","Unknown","","S","Past Producer","Chalcopyrite","Calcite, Pyrite, Quartz","Surface/Underground","Cymra, Cimru, Excelsior, Vesta","","Limestone",""
"81","Cymru Mine",55.1364,-132.19984,NA,"United States","","M","Silver","Gold","","Unknown","","S","Past Producer","Chalcopyrite","Calcite, Pyrite, Quartz","Surface/Underground","Cymra, Cimru, Excelsior, Vesta","","Limestone",""
"82","Big Five",55.65251,-132.41431,NA,"United States","","M","Copper","Iron","","Unknown","","N","Occurrence","Chalcopyrite, Magnetite, Pyrrhotite","Epidote, Garnet, Pyrite","Underground","","","Limestone","Diorite"
"83","Copper Mountain Mine",55.23167,-132.61291,NA,"United States","","M","Copper","Silver, Gold","","Unknown","","S","Past Producer","Bornite, Chalcopyrite, Copper","Epidote, Garnet, Magnetite, Scapolite","Surface/Underground","Oregon, Iron Crown, Alaska Consolidated Copper Co., Coppermount, Claims: Indiana, New York","","Limestone","Diorite"
"84","Blue Jay Mine",55.66085,-132.01291,NA,"United States","","M","Gold","","","Unknown","","S","Past Producer","","","","Libe, Bert Lide","","",""
"85","Croesus Prospect",55.14917,-132.18011,NA,"United States","","M","Copper","Gold","","Unknown","","N","Occurrence","Chalcopyrite, Gold","Epidote, Hematite, Magnetite","Surface/Underground","San Juan","","Greenschist",""
"86","Kio Claims",55.1664,-132.13984,NA,"United States","","M","Copper","Gold","Zinc, Lead","Unknown","","N","Occurrence","Chalcopyrite, Galena, Sphalerite","","","Fawn","","Greenschist",""
"87","Grindall Mining and Smelting Co.",55.52334,-132.32541,NA,"United States","","M","Copper","","Molybdenum","Unknown","","S","Past Producer","Chalcopyrite, Magnetite, Molybdenite","Epidote, Garnet","Surface/Underground","Claims: Peacock, Tacoma","","","Basalt"
"88","Paris Prospect",55.21917,-132.60318,NA,"United States","","M","Gold","Copper","","Unknown","","N","Occurrence","","","Underground","","","Quartzite",""
"89","Oregon Claim",55.16834,-132.14734,NA,"United States","","M","Copper","Gold","Zinc, Silver","Unknown","","N","Occurrence","Chalcopyrite, Sphalerite","","","Claim: Maggie May","Vein Defines Contact Between Limestone And Schist","Limestone",""
"90","O.K. Occurrence",55.1989,-132.04956,NA,"United States","","M","Copper","Zinc, Gold","Lead, Silver","Unknown","","N","Occurrence","Galena, Sphalerite","","","","Vein Is At Contact Between Schist And Limestone","Schist",""
"91","Navaho Prospect",55.10945,-132.15956,NA,"United States","","M","Gold","","Copper","Unknown","","N","Occurrence","Chalcopyrite","Pyrite","","Claim: Hope","","Schist","Granite"
"92","Nancy Claim",55.35111,-132.83375,NA,"United States","","M","Copper","","","Unknown","","N","Occurrence","Chalcopyrite","","","","","Greenstone","Argillite"
"93","Mount Andrew Mine",55.51501,-132.30458,NA,"United States","","M","Copper","Gold, Silver","Iron","Unknown","Contact Metasomatic","S","Past Producer","Chalcopyrite, Magnetite","","Surface/Underground","","","Greenstone","Diabase"
"94","Iron Cap Prospect",55.64834,-132.39209,NA,"United States","","M","Copper","Iron","Gold, Silver","Unknown","Replacement","N","Occurrence","Bornite, Chalcopyrite, Gold, Magnetite","Calcite, Epidote, Garnet, Quartz","","Iron Crown","Mineralization At Contact Of Intrusive And Metamorphic Rocks","Greenstone",""
"95","Gervis Prospect",55.51779,-132.82264,NA,"United States","","M","Gold","","","Unknown","","N","Occurrence","Gold","","","","","",""
"96","Frisco Claim",55.16112,-132.13484,NA,"United States","","M","Gold","","","Unknown","","N","Occurrence","","","","Tomboy Group","","Schist",""
"97","Friendship Lode",55.21723,-132.31568,NA,"United States","","M","Copper","","Gold","Unknown","","N","Occurrence","Bornite, Chalcopyrite","","","","Ore Body Occupies Fault Zone","Marble",""
"98","Equator Prospect",55.2214,-132.04317,NA,"United States","","M","Gold","","Copper","Unknown","","N","Occurrence","Chalcopyrite","","Underground","","","Limestone",""
"99","Houghton Prospect",55.26223,-132.62541,NA,"United States","","M","Copper","Iron","","Unknown","","N","Occurrence","Chalcopyrite, Copper, Magnetite, Pyrrhotite","Epidote, Garnet","","Cuprite Copper Company","Ore Body Is In Contact Zone","Limestone","Diorite"
"100","Copper Claim",55.52195,-132.67959,NA,"United States","","M","Gold","","","Unknown","","N","Occurrence","Gold","","","","","Granite","Granite"
"101","Cook Claim",55.14945,-132.08484,NA,"United States","","M","Gold","","","Unknown","","N","Occurrence","Gold","","","","","",""
"102","Cachelot Occurrence",55.4678,-132.15735,NA,"United States","","M","Copper","","Silver, Gold","Unknown","","N","Occurrence","Chalcopyrite","","","","","Diorite","Diorite"
"103","Burke and Lange Occurrence",55.48862,-132.6532,NA,"United States","","M","Gold","","","Unknown","","N","Occurrence","","","","Burked Lang","Vein Parallels Strike Of Enclosing Tuff","Greenstone",""
"104","Bruce Prospect",55.23723,-132.60179,NA,"United States","","M","Copper","","","Unknown","","N","Occurrence","","","","","","",""
"105","Beaver Claim",55.29417,-132.6018,NA,"United States","","M","Copper","","","Unknown","Unknown","N","Occurrence","","","","","","",""
"106","Beaver Claim",55.29417,-132.6018,NA,"United States","","M","Gold","","","Unknown","Unknown","N","Occurrence","","","","","","",""
"107","Shelton Prospect",55.43029,-132.65598,NA,"United States","","M","Copper","Gold, Silver","","Unknown","","N","Occurrence","Chalcopyrite, Malachite","Calcite, Pyrite, Quartz","Surface/Underground","Claims: Lavina, Rosalie, Roman","","Limestone",""
"108","Silver Star Prospect",55.03028,-133.08236,NA,"United States","","M","Gold","Zinc","Copper, Lead","Unknown","","N","Occurrence","Chalcopyrite, Galena, Sphalerite","","","","Veins Follow Bedding","Limestone",""
"109","Silver Star Prospect",55.03028,-133.08236,NA,"United States","","M","Silver","Zinc","Copper, Lead","Unknown","","N","Occurrence","Chalcopyrite, Galena, Sphalerite","","","","Veins Follow Bedding","Limestone",""
"110","Russian Bear Prospect",55.22751,-132.59623,NA,"United States","","M","Copper","","","Unknown","Contact Metasomatic","N","Occurrence","","","","Texas Prospect","","","Diorite"
"111","Magnetite Ore Body, Rush and Brown Mine",55.62473,-132.58792,NA,"United States","","M","Copper","Gold, Silver","Iron","Unknown","Replacement","S","Past Producer","Chalcopyrite, Magnetite","Calcite, Epidote, Garnet, Pyrite","Surface/Underground","Alaska Consolidated Copper Co, Alaska Gold and Metals Co., Iron Cliff","Mineralization Follows Tuff-Pluton Contact","Greenstone",""
"112","Shear Zone Ore Body, Rush and Brown Mine",55.62473,-132.58792,NA,"United States","","M","Copper","Gold, Silver","","Unknown","","S","Past Producer","Chalcopyrite, Pyrrhotite","Calcite, Quartz","Surface/Underground","Alaska Consolidated Copper Co, Alaska Gold and Metal Co., Iron Cliff","","Greenstone",""
"113","Rich Hill Mine",55.51917,-132.3393,NA,"United States","","M","Copper","","Iron, Molybdenum","Unknown","","S","Past Producer","Chalcopyrite, Molybdenite","Epidote, Garnet, Pyrite","Surface/Underground","Ouray Prospect","Ore Bodies Are In Contact Zones Between Dikes And Counyry Rocks","Greenstone","Diorite"
"114","Rex Claim",55.23862,-132.53651,NA,"United States","","M","Copper","Iron","","Unknown","","N","Occurrence","Chalcopyrite, Magnetite","Diopside, Epidote, Garnet","","","","Limestone","Diorite"
"115","Reed Occurrence",55.58029,-132.47959,NA,"United States","","M","Copper","","","Unknown","","N","Occurrence","","","","","","",""
"116","Poorman Prospect",55.56084,-132.43791,NA,"United States","","M","Iron","Copper, Gold","Silver","Unknown","Replacement","N","Occurrence","Chalcopyrite, Magnetite","Calcite, Chlorite, Epidote, Fluorite, Limonite, Malachite","Surface/Underground","","Diabase Forms Footwall Of Deposit","Greenstone",""
"117","Niblack Copper Co.",55.06667,-132.14844,NA,"United States","","M","Copper","Gold, Silver","Zinc","Unknown","Replacement","S","Past Producer","Chalcopyrite, Sphalerite","","Underground","","","Greenschist","Diabase"
"118","Mt. Jumbo Prospect",55.26084,-132.63374,NA,"United States","","M","Copper","Silver","Zinc","Unknown","","N","Occurrence","Chalcopyrite, Goethite, Marcasite, Pyrrhotite","Garnet","","","","Carbonate","Diorite"
"119","Wallace Claim",55.64557,-132.37264,NA,"United States","","M","Copper","","","Unknown","","N","Occurrence","Chalcopyrite","Epidote, Garnet, Magnetite","","","","",""
"120","Uncle Sam Mine",55.53029,-132.36013,NA,"United States","","M","Copper","Gold","","Unknown","","S","Past Producer","Chalcopyrite","Calcite, Epidote, Garnet, Magnetite","Surface/Underground","","","Greenstone","Syenite"
"121","Triangle No. 2 Claim",55.14029,-132.04566,NA,"United States","","M","Gold","","","Unknown","","N","Occurrence","","Calcite, Quartz","","","","Limestone",""
"122","Tolstoi Occurrence",55.64002,-132.37403,NA,"United States","","M","Copper","","Iron","Unknown","","N","Occurrence","Chalcopyrite, Magnetite","","","","","",""
"123","Sunny Day Prospect",55.5539,-132.39069,NA,"United States","","M","Copper","Gold, Silver","","Unknown","","N","Occurrence","Chalcopyrite","","","","Vein Follows Vertical Dike Which Strikes N 65 E.","Greenstone",""
"124","Summit Prospect",55.51223,-132.80875,NA,"United States","","M","Gold","","","Unknown","","N","Occurrence","Chalcopyrite, Galena","Pyrite","","","","Plutonic Rock","Plutonic Rock"
"125","Summit Prospect",55.51223,-132.80875,NA,"United States","","M","Silver","","","Unknown","","N","Occurrence","Chalcopyrite, Galena","Pyrite","","","","Plutonic Rock","Plutonic Rock"
"126","Sultana Prospect",55.28584,-132.56569,NA,"United States","","M","Copper","","Nickel, Cobalt","Unknown","","N","Occurrence","Chalcopyrite, Pyrrhotite","Calcite, Epidote, Garnet, Magnetite","","Claims:Index, Vulcan","Limestone Forms Hanging Wall While Pluton 1s Foot Wall.","Limestone","Granite"
"127","Stevenstown Mine",55.51362,-132.29208,NA,"United States","","M","Copper","Gold, Silver","Iron","Unknown","Contact Metasomatic","S","Past Producer","Chalcopyrite, Magnetite","Calcite, Epidote, Garnet","Surface/Underground","","Limestone Is Hanging Wall, Syenite Is Footwall","Limestone","Syenite,Dacite"
"128","Stevens Occurrence",55.63584,-132.57403,NA,"United States","","M","Copper","","","Unknown","","N","Occurrence","","","","","","",""
"129","Stevens Occurrence",55.61917,-132.54487,NA,"United States","","M","Copper","","","Unknown","","N","Occurrence","Bornite","","","","","Diorite",""
"130","Standby Occurrence",55.14584,-132.05677,NA,"United States","","M","Gold","","","Unknown","","N","Occurrence","","Pyrite","","","","Limestone",""
"131","Snowdrift Prospect",55.48029,-132.70737,NA,"United States","","M","Gold","","","Unknown","","N","Occurrence","","","","","","",""
"132","Shellhouse Prospect",55.05666,-133.07402,NA,"United States","","M","Copper","","","Unknown","","N","Occurrence","Chalcopyrite","Calcite, Pyrrhotite, Quartz","","","","Limestone",""
"133","Saxe Prospect",55.49139,-132.99349,NA,"United States","","M","Gold","Lead","Copper, Zinc","Unknown","","N","Occurrence","Chalcopyrite, Galena, Pyrite, Sphalerite","","","","","Andesite","Andesite"
"134","Saxe Prospect",55.49139,-132.99349,NA,"United States","","M","Silver","Lead","Copper, Zinc","Unknown","","N","Occurrence","Chalcopyrite, Galena, Pyrite, Sphalerite","","","","","Andesite","Andesite"
"135","Salmon Claim",55.13501,-132.05566,NA,"United States","","M","Gold","","Copper, Lead","Unknown","","N","Occurrence","Chalcopyrite, Galena","Pyrite","","","","Limestone",""
"136","Lucky Boy Prospect",55.15862,-132.23734,NA,"United States","","M","Zinc","","Gold, Copper, Silver","Unknown","","N","Occurrence","Chalcopyrite, Galena, Pyrite, Sphalerite","Calcite, Quartz","Surface/Underground","Claims: Complex, Frisco, Idaho, Lady of the Lake, Minnetonka, Oregon, Dragon, Portland, Seattle","","Schist","Granite"
"137","Lucky Boy Prospect",55.15862,-132.23734,NA,"United States","","M","Lead","","Gold, Copper, Silver","Unknown","","N","Occurrence","Chalcopyrite, Galena, Pyrite, Sphalerite","Calcite, Quartz","Surface/Underground","Claims: Complex, Frisco, Idaho, Lady of the Lake, Minnetonka, Oregon, Dragon, Portland, Seattle","","Schist","Granite"
"138","Harris Creek Mine",55.46917,-132.70598,NA,"United States","","M","Gold","","Lead","Unknown","","S","Past Producer","Galena","","Surface/Underground","Julia, Dunton, Kasaan Gold, Rogers","","Slate","Mafic Intrusive Rock"
"139","It Mining Co.",55.57751,-132.46709,NA,"United States","","M","Copper","Gold, Silver","Molybdenum","Unknown","Contact Metasomatic","S","Past Producer","Chalcopyrite, Molybdenite, Pyrite","Calcite, Epidote, Garnet, Hematite, Magnetite","","","Limestone Is Hanging Wall And Diorite Is Footwall Of Deposit","Limestone","Siltstone"
"140","Jumbo Mine",55.25251,-132.62124,NA,"United States","","M","Gold","","Iron, Zinc, Molybdenum","Unknown","Contact Metasomatic","S","Past Producer","Chalcopyrite, Magnetite, Specularite, Sphalerite","Epidote, Garnet, Scapolite, Wollastonite","Surface/Underground","","Ore Body At Contact","Limestone",""
"141","Jumbo Mine",55.25251,-132.62124,NA,"United States","","M","Silver","","Iron, Zinc, Molybdenum","Unknown","Contact Metasomatic","S","Past Producer","Chalcopyrite, Magnetite, Specularite, Sphalerite","Epidote, Garnet, Scapolite, Wollastonite","Surface/Underground","","Ore Body At Contact","Limestone",""
"142","Jumbo Mine",55.25251,-132.62124,NA,"United States","","M","Copper","","Iron, Zinc, Molybdenum","Unknown","Contact Metasomatic","S","Past Producer","Chalcopyrite, Magnetite, Specularite, Sphalerite","Epidote, Garnet, Scapolite, Wollastonite","Surface/Underground","","Ore Body At Contact","Limestone",""
"143","Unnamed Occurrence",55.30806,-132.57958,NA,"United States","","M","Lead","","","Unknown","","N","Occurrence","Galena, Sphalerite","","","","","Limestone",""
"144","Unnamed Occurrence",55.30806,-132.57958,NA,"United States","","M","Zinc","","","Unknown","","N","Occurrence","Galena, Sphalerite","","","","","Limestone",""
"145","Dawson Mine",55.46084,-132.72681,NA,"United States","","M","Gold","","Copper, Zinc, Lead","Unknown","","S","Past Producer","Chalcopyrite, Galena, Pyrite, Sphalerite","","","George, Humboldt Vein, Free Gold Vein","Ore Bodies Follow Dikes, Which In Turn Follow The Bedding And Foliation Of The Slate","Slate","Diorite"
"146","Campbell Prospect",55.26362,-132.64486,NA,"United States","","M","Copper","","Zinc, Silver, Gold, Lead","Unknown","","N","Occurrence","Chalcopyrite, Pyrrhotite","","Underground","","","Marble","Diorite"
"147","Gonnanson Occurrence",55.25251,-132.62958,NA,"United States","","M","Copper","Iron","","Unknown","","N","Occurrence","Chalcopyrite, Magnetite","","","","","",""
"148","Miller Claim",55.05389,-133.07124,NA,"United States","","M","Copper","","","Unknown","","N","Occurrence","Chalcopyrite","Calcite, Pyrrhotite, Quartz","","","","Limestone",""
"149","Washington Claim",55.17084,-132.1465,NA,"United States","","M","Gold","","Copper, Zinc, Silver","Unknown","","N","Occurrence","","","","Claim: Maggie May","","Limestone",""
"150","Wednesday Occurrence",55.13584,-132.0976,NA,"United States","","M","Gold","","","Unknown","","N","Occurrence","","Calcite","","","","Limestone",""
"151","Welcome Claim",55.1414,-132.04621,NA,"United States","","M","Gold","","","Unknown","","N","Occurrence","","Pyrite","","","","Limestone",""
"152","Wellfleet Claim",55.15056,-132.06899,NA,"United States","","M","Gold","","","Unknown","","N","Occurrence","","","","","","Schist",""
"153","Westcott Claim",55.07001,-132.15177,NA,"United States","","M","Copper","","","Unknown","","N","Occurrence","Chalcopyrite, Pyrite","Quartz","","","","Schist",""
"154","Unnamed Occurrence",55.45665,-133.81573,NA,"United States","","M","Copper","","","Unknown","","N","Occurrence","Chalcopyrite","","","","","Marble",""
"155","Unnamed Occurrence",55.46362,-132.81153,NA,"United States","","M","Copper","","","Unknown","","N","Occurrence","Chalcopyrite, Pyrite","","","","","Greenstone",""
"156","Unnamed Occurrences",55.42611,-133.25738,NA,"United States","","M","Copper","","","Unknown","","N","Occurrence","Chalcopyrite, Pyrite","","","","","Diorite",""
"157","Unnamed Occurrence",55.3775,-132.87125,NA,"United States","","M","Copper","","","Unknown","","N","Occurrence","Pyrite","","","","","Greenschist",""
"158","Unnamed Occurrence",55.40528,-133.30182,NA,"United States","","M","Copper","","","Unknown","","N","Occurrence","Chalcopyrite, Pyrite","","","","","Diorite",""
"159","Unnamed Occurrence",55.37194,-132.80737,NA,"United States","","M","Copper","","","Unknown","","N","Occurrence","Chalcopyrite, Pyrite","","","","","Greenschist",""
"160","Unnamed Occurrences",55.26638,-133.63516,NA,"United States","","M","Copper","","","Unknown","","N","Occurrence","Chalcopyrite, Pyrite","","","","","Phyllite",""
"161","Unnamed Occurrence",55.30945,-132.69069,NA,"United States","","M","Copper","","","Unknown","","N","Occurrence","Chalcopyrite","","","","","Volcanic Rock (Aphanitic)",""
"162","Unnamed Prospect",55.48584,-132.72959,NA,"United States","","M","Gold","Lead, Zinc, Copper","","Unknown","","N","Occurrence","Chalcopyrite, Galena, Pyrite, Sphalerite","","","","Vein Appears 50 Feet From Contact With Graywalke","Diorite","Diorite"
"163","Unnamed Prospect",55.48584,-132.72959,NA,"United States","","M","Silver","Lead, Zinc, Copper","","Unknown","","N","Occurrence","Chalcopyrite, Galena, Pyrite, Sphalerite","","","","Vein Appears 50 Feet From Contact With Graywalke","Diorite","Diorite"
"164","Unnamed Occurrence",55.31361,-132.78236,NA,"United States","","M","Copper","","","Unknown","","N","Occurrence","Chalcopyrite, Pyrite","","","","","Greenstone",""
"165","Unnamed Occurrences",55.25667,-132.62124,NA,"United States","","M","Copper","Iron","","Unknown","","N","Occurrence","Chalcopyrite, Magnetite","","","","","Marble","Diorite"
"166","Unnamed Occurrence",55.51501,-132.73653,NA,"United States","","M","Copper","Lead","","Unknown","","N","Occurrence","Chalcopyrite, Galena, Pyrrhotite","","","","","Argillite",""
"167","Yellowstone Prospect",55.1025,-133.12263,NA,"United States","","M","Gold","Copper","","Unknown","","N","Occurrence","Chalcopyrite","Calcite, Quartz","","","","",""
"168","Double Anchor",56.06366,-130.25982,NA,"United States","","M","Zinc","Copper","","Unknown","","","Prospect","Chalcopyrite, Galena, Pyrite, Sphalerite","Quartz","","Alaska State Mines Extension","","Siltstone",""
"169","Double Anchor",56.06366,-130.25982,NA,"United States","","M","Lead","Copper","","Unknown","","","Prospect","Chalcopyrite, Galena, Pyrite, Sphalerite","Quartz","","Alaska State Mines Extension","","Siltstone",""
"170","Double Anchor",56.06366,-130.25982,NA,"United States","","M","Copper","Copper","","Unknown","","","Prospect","Chalcopyrite, Galena, Pyrite, Sphalerite","Quartz","","Alaska State Mines Extension","","Siltstone",""
"171","Double Anchor",56.06366,-130.25982,NA,"United States","","M","Gold","Copper","","Unknown","","","Prospect","Chalcopyrite, Galena, Pyrite, Sphalerite","Quartz","","Alaska State Mines Extension","","Siltstone",""
"172","Double Anchor",56.06366,-130.25982,NA,"United States","","M","Silver","Copper","","Unknown","","","Prospect","Chalcopyrite, Galena, Pyrite, Sphalerite","Quartz","","Alaska State Mines Extension","","Siltstone",""
"173","Hummel",56.06477,-130.2437,NA,"United States","","M","Copper","","","Unknown","","","Prospect","Chalcopyrite, Galena, Pyrite, Sphalerite, Tetrahedrite","Quartz","","","","Argillite",""
"174","Hummel",56.06477,-130.2437,NA,"United States","","M","Lead","","","Unknown","","","Prospect","Chalcopyrite, Galena, Pyrite, Sphalerite, Tetrahedrite","Quartz","","","","Argillite",""
"175","Hummel",56.06477,-130.2437,NA,"United States","","M","Zinc","","","Unknown","","","Prospect","Chalcopyrite, Galena, Pyrite, Sphalerite, Tetrahedrite","Quartz","","","","Argillite",""
"176","Hummel",56.06477,-130.2437,NA,"United States","","M","Silver","","","Unknown","","","Prospect","Chalcopyrite, Galena, Pyrite, Sphalerite, Tetrahedrite","Quartz","","","","Argillite",""
"177","Hummel",56.06477,-130.2437,NA,"United States","","M","Gold","","","Unknown","","","Prospect","Chalcopyrite, Galena, Pyrite, Sphalerite, Tetrahedrite","Quartz","","","","Argillite",""
"178","Chickamin",56.07088,-130.2737,NA,"United States","","M","Copper","","","Unknown","","","Prospect","Chalcopyrite, Galena, Pyrite, Pyrrhotite, Tetrahedrite","Quartz","","","","Graywacke",""
"179","Chickamin",56.07088,-130.2737,NA,"United States","","M","Lead","","","Unknown","","","Prospect","Chalcopyrite, Galena, Pyrite, Pyrrhotite, Tetrahedrite","Quartz","","","","Graywacke",""
"180","Chickamin",56.07088,-130.2737,NA,"United States","","M","Zinc","","","Unknown","","","Prospect","Chalcopyrite, Galena, Pyrite, Pyrrhotite, Tetrahedrite","Quartz","","","","Graywacke",""
"181","Cathedral",56.07477,-130.28676,NA,"United States","","M","Silver","","","Unknown","","","Prospect","Chalcopyrite, Galena, Pyrite, Pyrrhotite, Sphalerite","Quartz","","","","Siltstone",""
"182","Cathedral",56.07477,-130.28676,NA,"United States","","M","Gold","","","Unknown","","","Prospect","Chalcopyrite, Galena, Pyrite, Pyrrhotite, Sphalerite","Quartz","","","","Siltstone",""
"183","Cathedral",56.07477,-130.28676,NA,"United States","","M","Copper","","","Unknown","","","Prospect","Chalcopyrite, Galena, Pyrite, Pyrrhotite, Sphalerite","Quartz","","","","Siltstone",""
"184","Cathedral",56.07477,-130.28676,NA,"United States","","M","Lead","","","Unknown","","","Prospect","Chalcopyrite, Galena, Pyrite, Pyrrhotite, Sphalerite","Quartz","","","","Siltstone",""
"185","Cathedral",56.07477,-130.28676,NA,"United States","","M","Zinc","","","Unknown","","","Prospect","Chalcopyrite, Galena, Pyrite, Pyrrhotite, Sphalerite","Quartz","","","","Siltstone",""
"186","Marietta",56.07588,-130.25982,NA,"United States","","M","Gold","Zinc, Copper, Lead","","Unknown","","","Past Producer","Electrum, Galena, Gold","Calcite, Quartz","","Solo PecosPecos","","",""
"187","Marietta",56.07588,-130.25982,NA,"United States","","M","Silver","Zinc, Copper, Lead","","Unknown","","","Past Producer","Electrum, Galena, Gold","Calcite, Quartz","","Solo PecosPecos","","",""
"188","Blasher",56.05588,-130.26676,NA,"United States","","M","Zinc","","","Unknown","","","Prospect","Chalcopyrite, Galena, Pyrite, Pyrrhotite, Sphalerite","Quartz","","Lone Star Group","","Quartzite",""
"189","Blasher",56.05588,-130.26676,NA,"United States","","M","Lead","","","Unknown","","","Prospect","Chalcopyrite, Galena, Pyrite, Pyrrhotite, Sphalerite","Quartz","","Lone Star Group","","Quartzite",""
"190","Blasher",56.05588,-130.26676,NA,"United States","","M","Molybdenum","","","Unknown","","","Prospect","Chalcopyrite, Galena, Pyrite, Pyrrhotite, Sphalerite","Quartz","","Lone Star Group","","Quartzite",""
"191","Blasher",56.05588,-130.26676,NA,"United States","","M","Copper","","","Unknown","","","Prospect","Chalcopyrite, Galena, Pyrite, Pyrrhotite, Sphalerite","Quartz","","Lone Star Group","","Quartzite",""
"192","Blasher",56.05588,-130.26676,NA,"United States","","M","Gold","","","Unknown","","","Prospect","Chalcopyrite, Galena, Pyrite, Pyrrhotite, Sphalerite","Quartz","","Lone Star Group","","Quartzite",""
"193","Blasher",56.05588,-130.26676,NA,"United States","","M","Silver","","","Unknown","","","Prospect","Chalcopyrite, Galena, Pyrite, Pyrrhotite, Sphalerite","Quartz","","Lone Star Group","","Quartzite",""
"194","Morning",56.05283,-130.26982,NA,"United States","","M","Lead","","","Unknown","","","Prospect","Galena, Pyrite","Quartz","","Lakeside, Lone Star Group","","Diorite","Diorite"
"195","Morning",56.05283,-130.26982,NA,"United States","","M","Silver","","","Unknown","","","Prospect","Galena, Pyrite","Quartz","","Lakeside, Lone Star Group","","Diorite","Diorite"
"196","Lake",56.05671,-130.27565,NA,"United States","","M","Copper","","","Unknown","","","Prospect","Chalcopyrite, Galena, Pyrite","Quartz","","","","Clastic Sedimentary Rock","Diorite"
"197","Lake",56.05671,-130.27565,NA,"United States","","M","Lead","","","Unknown","","","Prospect","Chalcopyrite, Galena, Pyrite","Quartz","","","","Clastic Sedimentary Rock","Diorite"
"198","Hummel Canyon",56.04366,-130.2937,NA,"United States","","M","Silver","","","Unknown","","","Prospect","Chalcopyrite, Galena, Molybdenite, Pyrite, Sphalerite","Quartz","","","","Hornfels",""
"199","Hummel Canyon",56.04366,-130.2937,NA,"United States","","M","Copper","","","Unknown","","","Prospect","Chalcopyrite, Galena, Molybdenite, Pyrite, Sphalerite","Quartz","","","","Hornfels",""
"200","Hummel Canyon",56.04366,-130.2937,NA,"United States","","M","Molybdenum","","","Unknown","","","Prospect","Chalcopyrite, Galena, Molybdenite, Pyrite, Sphalerite","Quartz","","","","Hornfels",""
"201","Hummel Canyon",56.04366,-130.2937,NA,"United States","","M","Lead","","","Unknown","","","Prospect","Chalcopyrite, Galena, Molybdenite, Pyrite, Sphalerite","Quartz","","","","Hornfels",""
"202","Hummel Canyon",56.04366,-130.2937,NA,"United States","","M","Zinc","","","Unknown","","","Prospect","Chalcopyrite, Galena, Molybdenite, Pyrite, Sphalerite","Quartz","","","","Hornfels",""
"203","Marmot, upper basin",56.02588,-130.37065,NA,"United States","","M","Lead","Gold, Zinc","","Unknown","","","Prospect","Chalcopyrite, Galena, Molybdenite, Pyrite","Calcite, Quartz","","","","Hornfels","Andesite"
"204","Marmot, upper basin",56.02588,-130.37065,NA,"United States","","M","Molybdenum","Gold, Zinc","","Unknown","","","Prospect","Chalcopyrite, Galena, Molybdenite, Pyrite","Calcite, Quartz","","","","Hornfels","Andesite"
"205","Marmot, upper basin",56.02588,-130.37065,NA,"United States","","M","Copper","Gold, Zinc","","Unknown","","","Prospect","Chalcopyrite, Galena, Molybdenite, Pyrite","Calcite, Quartz","","","","Hornfels","Andesite"
"206","Marmot, upper basin",56.02588,-130.37065,NA,"United States","","M","Silver","Gold, Zinc","","Unknown","","","Prospect","Chalcopyrite, Galena, Molybdenite, Pyrite","Calcite, Quartz","","","","Hornfels","Andesite"
"207","Edelweiss",56.02588,-130.35565,NA,"United States","","M","Silver","","","Unknown","","","Prospect","Galena, Pyrite, Pyrrhotite","Quartz","","Marmot group","","Siltstone","Argillite"
"208","Edelweiss",56.02588,-130.35565,NA,"United States","","M","Gold","","","Unknown","","","Prospect","Galena, Pyrite, Pyrrhotite","Quartz","","Marmot group","","Siltstone","Argillite"
"209","Edelweiss",56.02588,-130.35565,NA,"United States","","M","Lead","","","Unknown","","","Prospect","Galena, Pyrite, Pyrrhotite","Quartz","","Marmot group","","Siltstone","Argillite"
"210","Galena",56.03088,-130.3337,NA,"United States","","M","Silver","","","Unknown","","","Prospect","Chalcopyrite, Galena, Molybdenite, Pyrite, Sphalerite","Calcite, Quartz","","Marmot group","","Hornfels",""
"211","Galena",56.03088,-130.3337,NA,"United States","","M","Copper","","","Unknown","","","Prospect","Chalcopyrite, Galena, Molybdenite, Pyrite, Sphalerite","Calcite, Quartz","","Marmot group","","Hornfels",""
"212","Galena",56.03088,-130.3337,NA,"United States","","M","Molybdenum","","","Unknown","","","Prospect","Chalcopyrite, Galena, Molybdenite, Pyrite, Sphalerite","Calcite, Quartz","","Marmot group","","Hornfels",""
"213","Galena",56.03088,-130.3337,NA,"United States","","M","Lead","","","Unknown","","","Prospect","Chalcopyrite, Galena, Molybdenite, Pyrite, Sphalerite","Calcite, Quartz","","Marmot group","","Hornfels",""
"214","Galena",56.03088,-130.3337,NA,"United States","","M","Zinc","","","Unknown","","","Prospect","Chalcopyrite, Galena, Molybdenite, Pyrite, Sphalerite","Calcite, Quartz","","Marmot group","","Hornfels",""
"215","Unnamed Occurrence",60.28066,-148.10225,NA,"United States","","M","Gold","","","Unknown","Vein","N","Occurrence","Gold","Quartz","","","","Sandstone",""
"216","Jumbo",56.01866,-130.35176,NA,"United States","","M","Zinc","Zinc, Gold, Copper","","Unknown","","","Prospect","Chalcopyrite, Galena, Molybdenite, Pyrite, Sphalerite","Quartz","","Marmot, lower basin","","Siltstone","Argillite"
"217","Jumbo",56.01866,-130.35176,NA,"United States","","M","Molybdenum","Zinc, Gold, Copper","","Unknown","","","Prospect","Chalcopyrite, Galena, Molybdenite, Pyrite, Sphalerite","Quartz","","Marmot, lower basin","","Siltstone","Argillite"
"218","Jumbo",56.01866,-130.35176,NA,"United States","","M","Silver","Zinc, Gold, Copper","","Unknown","","","Prospect","Chalcopyrite, Galena, Molybdenite, Pyrite, Sphalerite","Quartz","","Marmot, lower basin","","Siltstone","Argillite"
"219","Jumbo",56.01866,-130.35176,NA,"United States","","M","Lead","Zinc, Gold, Copper","","Unknown","","","Prospect","Chalcopyrite, Galena, Molybdenite, Pyrite, Sphalerite","Quartz","","Marmot, lower basin","","Siltstone","Argillite"
"220","Unnamed",56.38977,-130.9818,NA,"United States","","M","Molybdenum","","","Unknown","","","Occurrence","Molybdenite","Feldspar","","","","Granite",""
"221","Dugas",56.06283,-130.27287,NA,"United States","","M","Lead","","","Unknown","","","Prospect","Chalcopyrite, Galena, Malachite, Pyrite, Sphalerite","Quartz","","Stampede, Blasher Extension","","Siltstone","Granite"
"222","Dugas",56.06283,-130.27287,NA,"United States","","M","Zinc","","","Unknown","","","Prospect","Chalcopyrite, Galena, Malachite, Pyrite, Sphalerite","Quartz","","Stampede, Blasher Extension","","Siltstone","Granite"
"223","Dugas",56.06283,-130.27287,NA,"United States","","M","Silver","","","Unknown","","","Prospect","Chalcopyrite, Galena, Malachite, Pyrite, Sphalerite","Quartz","","Stampede, Blasher Extension","","Siltstone","Granite"
"224","Dugas",56.06283,-130.27287,NA,"United States","","M","Gold","","","Unknown","","","Prospect","Chalcopyrite, Galena, Malachite, Pyrite, Sphalerite","Quartz","","Stampede, Blasher Extension","","Siltstone","Granite"
"225","Dugas",56.06283,-130.27287,NA,"United States","","M","Copper","","","Unknown","","","Prospect","Chalcopyrite, Galena, Malachite, Pyrite, Sphalerite","Quartz","","Stampede, Blasher Extension","","Siltstone","Granite"
"226","Banded Mountain",56.04144,-130.40037,NA,"United States","","M","Gold","","","Unknown","","N","Occurrence","","","","","","Siltstone","Gabbro"
"227","Banded Mountain",56.04144,-130.40037,NA,"United States","","M","Silver","","","Unknown","","N","Occurrence","","","","","","Siltstone","Gabbro"
"228","Banded Mountain",56.04144,-130.40037,NA,"United States","","M","Lead","","","Unknown","","N","Occurrence","","","","","","Siltstone","Gabbro"
"229","Banded Mountain",56.04144,-130.40037,NA,"United States","","M","Copper","","","Unknown","","N","Occurrence","","","","","","Siltstone","Gabbro"
"230","Unnamed",56.04671,-130.39482,NA,"United States","","M","Copper","Silver, Gold","","Unknown","","","Occurrence","Chalcopyrite, Pyrrhotite","Quartz","","","","Siltstone",""
"231","Boundary",56.32977,-130.78179,NA,"United States","","M","Gold","","","Unknown","","","Occurrence","","","","","","",""
"232","Boundary",56.32977,-130.78179,NA,"United States","","M","Silver","","","Unknown","","","Occurrence","","","","","","",""
"233","Joker",56.20088,-130.45566,NA,"United States","","M","Molybdenum","","","Unknown","","","Occurrence","Molybdenite, Pyrite","Calcite, Quartz","","","","Schist",""
"234","Glacier",56.03977,-130.40148,NA,"United States","","M","Molybdenum","","","Unknown","","N","Occurrence","Chalcopyrite, Galena, Molybdenite","Pyrite, Quartz","","Banded Mountain","","Siltstone","Lamprophyre"
"235","Glacier",56.03977,-130.40148,NA,"United States","","M","Lead","","","Unknown","","N","Occurrence","Chalcopyrite, Galena, Molybdenite","Pyrite, Quartz","","Banded Mountain","","Siltstone","Lamprophyre"
"236","Glacier",56.03977,-130.40148,NA,"United States","","M","Copper","","","Unknown","","N","Occurrence","Chalcopyrite, Galena, Molybdenite","Pyrite, Quartz","","Banded Mountain","","Siltstone","Lamprophyre"
"237","Glacier",56.03977,-130.40148,NA,"United States","","M","Silver","","","Unknown","","N","Occurrence","Chalcopyrite, Galena, Molybdenite","Pyrite, Quartz","","Banded Mountain","","Siltstone","Lamprophyre"
"238","Glacier",56.03977,-130.40148,NA,"United States","","M","Gold","","","Unknown","","N","Occurrence","Chalcopyrite, Galena, Molybdenite","Pyrite, Quartz","","Banded Mountain","","Siltstone","Lamprophyre"
"239","Goat",56.01671,-130.4187,NA,"United States","","M","Silver","","","Unknown","","","Prospect","Chalcopyrite, Pyrrhotite","Calcite, Quartz","","Cub","","Siltstone","Argillite"
"240","Goat",56.01671,-130.4187,NA,"United States","","M","Gold","","","Unknown","","","Prospect","Chalcopyrite, Pyrrhotite","Calcite, Quartz","","Cub","","Siltstone","Argillite"
"241","Goat",56.01671,-130.4187,NA,"United States","","M","Copper","","","Unknown","","","Prospect","Chalcopyrite, Pyrrhotite","Calcite, Quartz","","Cub","","Siltstone","Argillite"
"242","Cone Mountain",56.51365,-131.73489,NA,"United States","","M","Uranium","Zinc, Lead","","Unknown","","","Prospect","","","","","","Granite","Granite"
"243","Waco",56.30976,-131.61181,NA,"United States","","M","Silver","","","Unknown","","","Occurrence","","","","","","",""
"244","Waco",56.30976,-131.61181,NA,"United States","","M","Gold","","","Unknown","","","Occurrence","","","","","","",""
"245","Waco",56.30976,-131.61181,NA,"United States","","M","Copper","","","Unknown","","","Occurrence","","","","","","",""
"246","Copper King",56.46975,-131.98183,NA,"United States","","M","Silver","","","Unknown","","","Prospect","","","","","","",""
"247","Copper King",56.46975,-131.98183,NA,"United States","","M","Gold","","","Unknown","","","Prospect","","","","","","",""
"248","Copper King",56.46975,-131.98183,NA,"United States","","M","Copper","","","Unknown","","","Prospect","","","","","","",""
"249","Copper King",56.46975,-131.98183,NA,"United States","","M","Lead","","","Unknown","","","Prospect","","","","","","",""
"250","Copper King",56.46975,-131.98183,NA,"United States","","M","Zinc","","","Unknown","","","Prospect","","","","","","",""
"251","Spud",56.47975,-131.98183,NA,"United States","","M","Silver","","","Unknown","","","Prospect","","Calcite","","","","Marble",""
"252","Spud",56.47975,-131.98183,NA,"United States","","M","Lead","","","Unknown","","","Prospect","","Calcite","","","","Marble",""
"253","Spud",56.47975,-131.98183,NA,"United States","","M","Zinc","","","Unknown","","","Prospect","","Calcite","","","","Marble",""
"254","Craig",56.46976,-131.27181,NA,"United States","","M","Copper","","","Unknown","","","Occurrence","Chalcopyrite, Magnetite, Pyrite, Pyrrhotite","","","","","Metasedimentary Rock",""
"255","Unuk River",56.32977,-130.77179,NA,"United States","","M","Copper","","","Unknown","","","Occurrence","Chalcopyrite, Pyrite, Pyrrhotite","Quartz","","","","",""
"256","Chamberlain Bay",60.87041,-147.19867,NA,"United States","","M","Copper","","","Unknown","Vein","N","Occurrence","Chalcopyrite","","","","","Basalt",""
"257","Cantu",56.07588,-130.06564,NA,"United States","","M","Zinc","Barium-Barite","","Unknown","","","Past Producer","Chalcopyrite, Galena, Pyrite, Sphalerite, Tetrahedrite","Barite, Calcite, Quartz","","","","Diorite","Diorite"
"258","Cantu",56.07588,-130.06564,NA,"United States","","M","Copper","Barium-Barite","","Unknown","","","Past Producer","Chalcopyrite, Galena, Pyrite, Sphalerite, Tetrahedrite","Barite, Calcite, Quartz","","","","Diorite","Diorite"
"259","Cantu",56.07588,-130.06564,NA,"United States","","M","Silver","Barium-Barite","","Unknown","","","Past Producer","Chalcopyrite, Galena, Pyrite, Sphalerite, Tetrahedrite","Barite, Calcite, Quartz","","","","Diorite","Diorite"
"260","Cantu",56.07588,-130.06564,NA,"United States","","M","Gold","Barium-Barite","","Unknown","","","Past Producer","Chalcopyrite, Galena, Pyrite, Sphalerite, Tetrahedrite","Barite, Calcite, Quartz","","","","Diorite","Diorite"
"261","Cantu",56.07588,-130.06564,NA,"United States","","M","Lead","Barium-Barite","","Unknown","","","Past Producer","Chalcopyrite, Galena, Pyrite, Sphalerite, Tetrahedrite","Barite, Calcite, Quartz","","","","Diorite","Diorite"
"262","Alaska-Premier (near Skookum Creek)",56.00977,-130.04175,NA,"United States","","M","Tungsten","","","Unknown","","","Prospect","Scheelite","Quartz","","","","",""
"263","Gold Cliff Premier",56.05283,-130.04564,NA,"United States","","M","Silver","","","Unknown","","","Prospect","Chalcopyrite, Galena, Pyrite, Pyrrhotite, Sphalerite, Tetrahedrite","Calcite, Quartz","","","","Slate","Diorite"
"264","Gold Cliff Premier",56.05283,-130.04564,NA,"United States","","M","Gold","","","Unknown","","","Prospect","Chalcopyrite, Galena, Pyrite, Pyrrhotite, Sphalerite, Tetrahedrite","Calcite, Quartz","","","","Slate","Diorite"
"265","Gold Cliff Premier",56.05283,-130.04564,NA,"United States","","M","Copper","","","Unknown","","","Prospect","Chalcopyrite, Galena, Pyrite, Pyrrhotite, Sphalerite, Tetrahedrite","Calcite, Quartz","","","","Slate","Diorite"
"266","Gold Cliff Premier",56.05283,-130.04564,NA,"United States","","M","Lead","","","Unknown","","","Prospect","Chalcopyrite, Galena, Pyrite, Pyrrhotite, Sphalerite, Tetrahedrite","Calcite, Quartz","","","","Slate","Diorite"
"267","Gold Cliff Premier",56.05283,-130.04564,NA,"United States","","M","Zinc","","","Unknown","","","Prospect","Chalcopyrite, Galena, Pyrite, Pyrrhotite, Sphalerite, Tetrahedrite","Calcite, Quartz","","","","Slate","Diorite"
"268","Heckla",56.01171,-130.33065,NA,"United States","","M","Zinc","Gold","","Unknown","","","Prospect","Anglesite, Chalcopyrite, Covellite, Digenite, Galena, Malachite, Molybdenite, Pyrite, Pyrrhotite, Sphalerite","Quartz","","Greenpoint","","Metasedimentary Rock","Quartz Monzonite"
"269","Heckla",56.01171,-130.33065,NA,"United States","","M","Molybdenum","Gold","","Unknown","","","Prospect","Anglesite, Chalcopyrite, Covellite, Digenite, Galena, Malachite, Molybdenite, Pyrite, Pyrrhotite, Sphalerite","Quartz","","Greenpoint","","Metasedimentary Rock","Quartz Monzonite"
"270","Heckla",56.01171,-130.33065,NA,"United States","","M","Silver","Gold","","Unknown","","","Prospect","Anglesite, Chalcopyrite, Covellite, Digenite, Galena, Malachite, Molybdenite, Pyrite, Pyrrhotite, Sphalerite","Quartz","","Greenpoint","","Metasedimentary Rock","Quartz Monzonite"
"271","Heckla",56.01171,-130.33065,NA,"United States","","M","Lead","Gold","","Unknown","","","Prospect","Anglesite, Chalcopyrite, Covellite, Digenite, Galena, Malachite, Molybdenite, Pyrite, Pyrrhotite, Sphalerite","Quartz","","Greenpoint","","Metasedimentary Rock","Quartz Monzonite"
"272","Heckla",56.01171,-130.33065,NA,"United States","","M","Copper","Gold","","Unknown","","","Prospect","Anglesite, Chalcopyrite, Covellite, Digenite, Galena, Malachite, Molybdenite, Pyrite, Pyrrhotite, Sphalerite","Quartz","","Greenpoint","","Metasedimentary Rock","Quartz Monzonite"
"273","Ninety-six",56.04283,-130.06869,NA,"United States","","M","Zinc","","","Unknown","","","Prospect","Chalcopyrite, Galena, Sphalerite, Tetrahedrite","Quartz","","Gold Eagle","","Diorite","Diorite"
"274","Ninety-six",56.04283,-130.06869,NA,"United States","","M","Copper","","","Unknown","","","Prospect","Chalcopyrite, Galena, Sphalerite, Tetrahedrite","Quartz","","Gold Eagle","","Diorite","Diorite"
"275","Ninety-six",56.04283,-130.06869,NA,"United States","","M","Lead","","","Unknown","","","Prospect","Chalcopyrite, Galena, Sphalerite, Tetrahedrite","Quartz","","Gold Eagle","","Diorite","Diorite"
"276","Border",56.04588,-130.03786,NA,"United States","","M","Copper","","","Unknown","","","Prospect","Chalcopyrite, Galena, Pyrite, Sphalerite","Calcite, Quartz","","","","Siltstone","Diorite"
"277","Border",56.04588,-130.03786,NA,"United States","","M","Lead","","","Unknown","","","Prospect","Chalcopyrite, Galena, Pyrite, Sphalerite","Calcite, Quartz","","","","Siltstone","Diorite"
"278","Border",56.04588,-130.03786,NA,"United States","","M","Zinc","","","Unknown","","","Prospect","Chalcopyrite, Galena, Pyrite, Sphalerite","Calcite, Quartz","","","","Siltstone","Diorite"
"279","Charles",56.05366,-130.06981,NA,"United States","","M","Lead","","","Unknown","","","Occurrence","Chalcopyrite, Galena, Pyrite, Sphalerite","Quartz","","Nelson and Pitcher","","",""
"280","Charles",56.05366,-130.06981,NA,"United States","","M","Zinc","","","Unknown","","","Occurrence","Chalcopyrite, Galena, Pyrite, Sphalerite","Quartz","","Nelson and Pitcher","","",""
"281","Charles",56.05366,-130.06981,NA,"United States","","M","Silver","","","Unknown","","","Occurrence","Chalcopyrite, Galena, Pyrite, Sphalerite","Quartz","","Nelson and Pitcher","","",""
"282","Charles",56.05366,-130.06981,NA,"United States","","M","Gold","","","Unknown","","","Occurrence","Chalcopyrite, Galena, Pyrite, Sphalerite","Quartz","","Nelson and Pitcher","","",""
"283","Charles",56.05366,-130.06981,NA,"United States","","M","Copper","","","Unknown","","","Occurrence","Chalcopyrite, Galena, Pyrite, Sphalerite","Quartz","","Nelson and Pitcher","","",""
"284","Virginia",56.03977,-130.04369,NA,"United States","","M","Zinc","","","Unknown","","","Prospect","Chalcopyrite, Galena, Pyrite, Pyrrhotite, Sphalerite, Tetrahedrite","Calcite, Quartz","","","","Greenstone",""
"285","Virginia",56.03977,-130.04369,NA,"United States","","M","Gold","","","Unknown","","","Prospect","Chalcopyrite, Galena, Pyrite, Pyrrhotite, Sphalerite, Tetrahedrite","Calcite, Quartz","","","","Greenstone",""
"286","Virginia",56.03977,-130.04369,NA,"United States","","M","Copper","","","Unknown","","","Prospect","Chalcopyrite, Galena, Pyrite, Pyrrhotite, Sphalerite, Tetrahedrite","Calcite, Quartz","","","","Greenstone",""
"287","Virginia",56.03977,-130.04369,NA,"United States","","M","Lead","","","Unknown","","","Prospect","Chalcopyrite, Galena, Pyrite, Pyrrhotite, Sphalerite, Tetrahedrite","Calcite, Quartz","","","","Greenstone",""
"288","Stoner-Clegg-O'Rourke",56.03171,-130.03481,NA,"United States","","M","Lead","","","Unknown","","","Prospect","Chalcopyrite, Galena, Pyrite, Pyrrhotite, Sphalerite, Tetrahedrite","Calcite","","","","Greenstone",""
"289","Stoner-Clegg-O'Rourke",56.03171,-130.03481,NA,"United States","","M","Zinc","","","Unknown","","","Prospect","Chalcopyrite, Galena, Pyrite, Pyrrhotite, Sphalerite, Tetrahedrite","Calcite","","","","Greenstone",""
"290","Stoner-Clegg-O'Rourke",56.03171,-130.03481,NA,"United States","","M","Copper","","","Unknown","","","Prospect","Chalcopyrite, Galena, Pyrite, Pyrrhotite, Sphalerite, Tetrahedrite","Calcite","","","","Greenstone",""
"291","Stoner",56.03477,-130.03064,NA,"United States","","M","Zinc","","","Unknown","","","Prospect","Galena, Pyrite, Pyrrhotite, Sphalerite, Tetrahedrite","Calcite, Quartz","","Stoner Gold and Silver Mining Corporation","","",""
"292","Stoner",56.03477,-130.03064,NA,"United States","","M","Lead","","","Unknown","","","Prospect","Galena, Pyrite, Pyrrhotite, Sphalerite, Tetrahedrite","Calcite, Quartz","","Stoner Gold and Silver Mining Corporation","","",""
"293","Stoner",56.03477,-130.03064,NA,"United States","","M","Gold","","","Unknown","","","Prospect","Galena, Pyrite, Pyrrhotite, Sphalerite, Tetrahedrite","Calcite, Quartz","","Stoner Gold and Silver Mining Corporation","","",""
"294","Stoner",56.03477,-130.03064,NA,"United States","","M","Silver","","","Unknown","","","Prospect","Galena, Pyrite, Pyrrhotite, Sphalerite, Tetrahedrite","Calcite, Quartz","","Stoner Gold and Silver Mining Corporation","","",""
"295","Bluebird",56.01449,-130.05564,NA,"United States","","M","Lead","","","Unknown","","N","Occurrence","Galena, Scheelite","Pyrite, Quartz","","","","Diorite","Diorite"
"296","Bluebird",56.01449,-130.05564,NA,"United States","","M","Molybdenum","","","Unknown","","N","Occurrence","Galena, Scheelite","Pyrite, Quartz","","","","Diorite","Diorite"
"297","Bluebird",56.01449,-130.05564,NA,"United States","","M","Tungsten","","","Unknown","","N","Occurrence","Galena, Scheelite","Pyrite, Quartz","","","","Diorite","Diorite"
"298","Bluebird",56.01449,-130.05564,NA,"United States","","M","Copper","","","Unknown","","N","Occurrence","Galena, Scheelite","Pyrite, Quartz","","","","Diorite","Diorite"
"299","Unnamed Occurrence",60.87819,-147.18978,NA,"United States","","M","Copper","","","Unknown","","N","Occurrence","Chalcopyrite","Pyrrhotite","","","","Basalt","Basalt"
"300","Alaska-Premier",56.0256,-130.04369,NA,"United States","","M","Silver","","","Unknown","","N","Occurrence","Chalcopyrite, Galena, Sphalerite","Pyrite, Quartz","","","","Felsic Volcanic Rock",""
"301","Alaska-Premier",56.0256,-130.04369,NA,"United States","","M","Gold","","","Unknown","","N","Occurrence","Chalcopyrite, Galena, Sphalerite","Pyrite, Quartz","","","","Felsic Volcanic Rock",""
"302","Alaska-Premier",56.0256,-130.04369,NA,"United States","","M","Copper","","","Unknown","","N","Occurrence","Chalcopyrite, Galena, Sphalerite","Pyrite, Quartz","","","","Felsic Volcanic Rock",""
"303","Alaska-Premier",56.0256,-130.04369,NA,"United States","","M","Lead","","","Unknown","","N","Occurrence","Chalcopyrite, Galena, Sphalerite","Pyrite, Quartz","","","","Felsic Volcanic Rock",""
"304","Alaska-Premier",56.0256,-130.04369,NA,"United States","","M","Zinc","","","Unknown","","N","Occurrence","Chalcopyrite, Galena, Sphalerite","Pyrite, Quartz","","","","Felsic Volcanic Rock",""
"305","Cripple Creek",56.02477,-130.06869,NA,"United States","","M","Silver","","","Unknown","","","Prospect","Chalcopyrite, Galena, Pyrite, Pyrrhotite, Sphalerite, Tetrahedrite","Quartz","","","","Diorite","Diorite"
"306","Cripple Creek",56.02477,-130.06869,NA,"United States","","M","Copper","","","Unknown","","","Prospect","Chalcopyrite, Galena, Pyrite, Pyrrhotite, Sphalerite, Tetrahedrite","Quartz","","","","Diorite","Diorite"
"307","Cripple Creek",56.02477,-130.06869,NA,"United States","","M","Lead","","","Unknown","","","Prospect","Chalcopyrite, Galena, Pyrite, Pyrrhotite, Sphalerite, Tetrahedrite","Quartz","","","","Diorite","Diorite"
"308","Cripple Creek",56.02477,-130.06869,NA,"United States","","M","Zinc","","","Unknown","","","Prospect","Chalcopyrite, Galena, Pyrite, Pyrrhotite, Sphalerite, Tetrahedrite","Quartz","","","","Diorite","Diorite"
"309","Portland",56.02171,-130.05481,NA,"United States","","M","Copper","","","Unknown","","","Prospect","Chalcopyrite, Galena, Pyrite","Quartz","","","","Greenstone","Diorite"
"310","Portland",56.02171,-130.05481,NA,"United States","","M","Lead","","","Unknown","","","Prospect","Chalcopyrite, Galena, Pyrite","Quartz","","","","Greenstone","Diorite"
"311","Portland",56.02171,-130.05481,NA,"United States","","M","Zinc","","","Unknown","","","Prospect","Chalcopyrite, Galena, Pyrite","Quartz","","","","Greenstone","Diorite"
"312","Crest",56.01644,-130.06481,NA,"United States","","M","Gold","","","Unknown","","","Prospect","Chalcopyrite, Galena, Pyrite","Quartz","","","","Diorite","Diorite"
"313","Crest",56.01644,-130.06481,NA,"United States","","M","Copper","","","Unknown","","","Prospect","Chalcopyrite, Galena, Pyrite","Quartz","","","","Diorite","Diorite"
"314","Crest",56.01644,-130.06481,NA,"United States","","M","Lead","","","Unknown","","","Prospect","Chalcopyrite, Galena, Pyrite","Quartz","","","","Diorite","Diorite"
"315","Butte",56.01644,-130.06869,NA,"United States","","M","Tungsten","","","Unknown","","N","Occurrence","Galena, Scheelite","Pyrite, Quartz","","Brigadier, Hyder Butte","","Diorite","Diorite"
"316","Butte",56.01644,-130.06869,NA,"United States","","M","Lead","","","Unknown","","N","Occurrence","Galena, Scheelite","Pyrite, Quartz","","Brigadier, Hyder Butte","","Diorite","Diorite"
"317","Butte",56.01644,-130.06869,NA,"United States","","M","Gold","","","Unknown","","N","Occurrence","Galena, Scheelite","Pyrite, Quartz","","Brigadier, Hyder Butte","","Diorite","Diorite"
"318","Butte",56.01644,-130.06869,NA,"United States","","M","Silver","","","Unknown","","N","Occurrence","Galena, Scheelite","Pyrite, Quartz","","Brigadier, Hyder Butte","","Diorite","Diorite"
"319","Colorado",60.65203,-149.55871,NA,"United States","","M","Gold","","","Unknown","Vein","N","Occurrence","Gold, Silver","Pyrite, Quartz","","","","Slate","Mafic Intrusive Rock"
"320","Colorado",60.65203,-149.55871,NA,"United States","","M","Silver","","","Unknown","Vein","N","Occurrence","Gold, Silver","Pyrite, Quartz","","","","Slate","Mafic Intrusive Rock"
"321","Hobo",56.02088,-130.04564,NA,"United States","","M","Lead","","","Unknown","","","Prospect","Arsenopyrite, Chalcopyrite, Galena, Pyrite, Pyrrhotite, Sphalerite","Calcite, Quartz","","Swede","","",""
"322","Hobo",56.02088,-130.04564,NA,"United States","","M","Copper","","","Unknown","","","Prospect","Arsenopyrite, Chalcopyrite, Galena, Pyrite, Pyrrhotite, Sphalerite","Calcite, Quartz","","Swede","","",""
"323","Hobo",56.02088,-130.04564,NA,"United States","","M","Gold","","","Unknown","","","Prospect","Arsenopyrite, Chalcopyrite, Galena, Pyrite, Pyrrhotite, Sphalerite","Calcite, Quartz","","Swede","","",""
"324","Hobo",56.02088,-130.04564,NA,"United States","","M","Silver","","","Unknown","","","Prospect","Arsenopyrite, Chalcopyrite, Galena, Pyrite, Pyrrhotite, Sphalerite","Calcite, Quartz","","Swede","","",""
"325","Hobo",56.02088,-130.04564,NA,"United States","","M","Zinc","","","Unknown","","","Prospect","Arsenopyrite, Chalcopyrite, Galena, Pyrite, Pyrrhotite, Sphalerite","Calcite, Quartz","","Swede","","",""
"326","Hyder Skookum",56.0106,-130.03758,NA,"United States","","M","Copper","","","Unknown","","N","Occurrence","Chalcopyrite","Pyrrhotite","","","","Greenstone","Diorite"
"327","Engineer",56.04366,-130.21954,NA,"United States","","M","Lead","","","Unknown","","N","Occurrence","Chalcopyrite, Galena, Scheelite","Pyrite, Quartz","","","","Diorite","Diorite"
"328","Engineer",56.04366,-130.21954,NA,"United States","","M","Copper","","","Unknown","","N","Occurrence","Chalcopyrite, Galena, Scheelite","Pyrite, Quartz","","","","Diorite","Diorite"
"329","Engineer",56.04366,-130.21954,NA,"United States","","M","Gold","","","Unknown","","N","Occurrence","Chalcopyrite, Galena, Scheelite","Pyrite, Quartz","","","","Diorite","Diorite"
"330","Engineer",56.04366,-130.21954,NA,"United States","","M","Silver","","","Unknown","","N","Occurrence","Chalcopyrite, Galena, Scheelite","Pyrite, Quartz","","","","Diorite","Diorite"
"331","Engineer",56.04366,-130.21954,NA,"United States","","M","Tungsten","","","Unknown","","N","Occurrence","Chalcopyrite, Galena, Scheelite","Pyrite, Quartz","","","","Diorite","Diorite"
"332","Titan",56.01088,-130.02369,NA,"United States","","M","Copper","","","Unknown","","","Prospect","Arsenopyrite, Chalcopyrite, Galena, Pyrite, Sphalerite","Quartz","","Titan Salmon River Syndicate","","Greenstone",""
"333","Titan",56.01088,-130.02369,NA,"United States","","M","Lead","","","Unknown","","","Prospect","Arsenopyrite, Chalcopyrite, Galena, Pyrite, Sphalerite","Quartz","","Titan Salmon River Syndicate","","Greenstone",""
"334","Titan",56.01088,-130.02369,NA,"United States","","M","Zinc","","","Unknown","","","Prospect","Arsenopyrite, Chalcopyrite, Galena, Pyrite, Sphalerite","Quartz","","Titan Salmon River Syndicate","","Greenstone",""
"335","Titan",56.01088,-130.02369,NA,"United States","","M","Silver","","","Unknown","","","Prospect","Arsenopyrite, Chalcopyrite, Galena, Pyrite, Sphalerite","Quartz","","Titan Salmon River Syndicate","","Greenstone",""
"336","Titan",56.01088,-130.02369,NA,"United States","","M","Gold","","","Unknown","","","Prospect","Arsenopyrite, Chalcopyrite, Galena, Pyrite, Sphalerite","Quartz","","Titan Salmon River Syndicate","","Greenstone",""
"337","Juneau",56.02477,-130.21564,NA,"United States","","M","Copper","","","Unknown","","","Occurrence","Chalcopyrite, Galena, Pyrite","Quartz","","","","Diorite","Diorite"
"338","Juneau",56.02477,-130.21564,NA,"United States","","M","Lead","","","Unknown","","","Occurrence","Chalcopyrite, Galena, Pyrite","Quartz","","","","Diorite","Diorite"
"339","Sunset",56.02171,-130.21175,NA,"United States","","M","Lead","Barium-Barite","","Unknown","","","Prospect","Galena, Pyrite","Quartz","","","","Diorite","Diorite"
"340","Sunset",56.02171,-130.21175,NA,"United States","","M","Silver","Barium-Barite","","Unknown","","","Prospect","Galena, Pyrite","Quartz","","","","Diorite","Diorite"
"341","Keno",56.03088,-130.2337,NA,"United States","","M","Zinc","Barium-Barite","","Unknown","","","Prospect","Chalcopyrite, Galena, Pyrite, Sphalerite, Tetrahedrite","Quartz","","","","Diorite","Diorite"
"342","Keno",56.03088,-130.2337,NA,"United States","","M","Lead","Barium-Barite","","Unknown","","","Prospect","Chalcopyrite, Galena, Pyrite, Sphalerite, Tetrahedrite","Quartz","","","","Diorite","Diorite"
"343","Keno",56.03088,-130.2337,NA,"United States","","M","Copper","Barium-Barite","","Unknown","","","Prospect","Chalcopyrite, Galena, Pyrite, Sphalerite, Tetrahedrite","Quartz","","","","Diorite","Diorite"
"344","Keno",56.03088,-130.2337,NA,"United States","","M","Gold","Barium-Barite","","Unknown","","","Prospect","Chalcopyrite, Galena, Pyrite, Sphalerite, Tetrahedrite","Quartz","","","","Diorite","Diorite"
"345","Keno",56.03088,-130.2337,NA,"United States","","M","Silver","Barium-Barite","","Unknown","","","Prospect","Chalcopyrite, Galena, Pyrite, Sphalerite, Tetrahedrite","Quartz","","","","Diorite","Diorite"
"346","North Star",56.04671,-130.2237,NA,"United States","","M","Silver","","","Unknown","","","Occurrence","Galena, Pyrite","Quartz","","Bevacque, Bervaqua","","Siltstone","Diorite"
"347","North Star",56.04671,-130.2237,NA,"United States","","M","Gold","","","Unknown","","","Occurrence","Galena, Pyrite","Quartz","","Bevacque, Bervaqua","","Siltstone","Diorite"
"348","North Star",56.04671,-130.2237,NA,"United States","","M","Lead","","","Unknown","","","Occurrence","Galena, Pyrite","Quartz","","Bevacque, Bervaqua","","Siltstone","Diorite"
"349","Jumbo (near Texas Creek)",56.05283,-130.2087,NA,"United States","","M","Copper","","","Unknown","","","Occurrence","Chalcopyrite, Galena, Pyrite, Sphalerite","Quartz","","","","Siltstone","Diorite"
"350","Jumbo (near Texas Creek)",56.05283,-130.2087,NA,"United States","","M","Lead","","","Unknown","","","Occurrence","Chalcopyrite, Galena, Pyrite, Sphalerite","Quartz","","","","Siltstone","Diorite"
"351","Jumbo (near Texas Creek)",56.05283,-130.2087,NA,"United States","","M","Zinc","","","Unknown","","","Occurrence","Chalcopyrite, Galena, Pyrite, Sphalerite","Quartz","","","","Siltstone","Diorite"
"352","Iron Cap",56.06783,-130.21565,NA,"United States","","M","Silver","","","Unknown","","","Prospect","Arsenopyrite, Chalcopyrite, Pyrrhotite, Sphalerite","Calcite, Quartz","","","","Siltstone","Diorite"
"353","Iron Cap",56.06783,-130.21565,NA,"United States","","M","Gold","","","Unknown","","","Prospect","Arsenopyrite, Chalcopyrite, Pyrrhotite, Sphalerite","Calcite, Quartz","","","","Siltstone","Diorite"
"354","Iron Cap",56.06783,-130.21565,NA,"United States","","M","Copper","","","Unknown","","","Prospect","Arsenopyrite, Chalcopyrite, Pyrrhotite, Sphalerite","Calcite, Quartz","","","","Siltstone","Diorite"
"355","Iron Cap",56.06783,-130.21565,NA,"United States","","M","Zinc","","","Unknown","","","Prospect","Arsenopyrite, Chalcopyrite, Pyrrhotite, Sphalerite","Calcite, Quartz","","","","Siltstone","Diorite"
"356","Silver Bell",56.07477,-130.20482,NA,"United States","","M","Zinc","","","Unknown","","","Occurrence","Chalcopyrite, Galena, Pyrite, Sphalerite, Tetrahedrite","Quartz","","","","Siltstone",""
"357","Silver Bell",56.07477,-130.20482,NA,"United States","","M","Lead","","","Unknown","","","Occurrence","Chalcopyrite, Galena, Pyrite, Sphalerite, Tetrahedrite","Quartz","","","","Siltstone",""
"358","Silver Bell",56.07477,-130.20482,NA,"United States","","M","Copper","","","Unknown","","","Occurrence","Chalcopyrite, Galena, Pyrite, Sphalerite, Tetrahedrite","Quartz","","","","Siltstone",""
"359","Homestake",56.07477,-130.17065,NA,"United States","","M","Gold","","","Unknown","","","Past Producer","Chalcopyrite, Galena, Pyrite, Sphalerite, Tetrahedrite","Quartz","","","","Diorite","Diorite"
"360","Homestake",56.07477,-130.17065,NA,"United States","","M","Silver","","","Unknown","","","Past Producer","Chalcopyrite, Galena, Pyrite, Sphalerite, Tetrahedrite","Quartz","","","","Diorite","Diorite"
"361","Homestake",56.07477,-130.17065,NA,"United States","","M","Lead","","","Unknown","","","Past Producer","Chalcopyrite, Galena, Pyrite, Sphalerite, Tetrahedrite","Quartz","","","","Diorite","Diorite"
"362","Homestake",56.07477,-130.17065,NA,"United States","","M","Zinc","","","Unknown","","","Past Producer","Chalcopyrite, Galena, Pyrite, Sphalerite, Tetrahedrite","Quartz","","","","Diorite","Diorite"
"363","Homestake",56.07477,-130.17065,NA,"United States","","M","Copper","","","Unknown","","","Past Producer","Chalcopyrite, Galena, Pyrite, Sphalerite, Tetrahedrite","Quartz","","","","Diorite","Diorite"
"364","Bartholf",56.08783,-130.07064,NA,"United States","","M","Lead","Barium-Barite","","Unknown","","","Occurrence","Barite, Chalcopyrite, Galena, Pyrite","Quartz","","","","Diorite","Diorite"
"365","Bartholf",56.08783,-130.07064,NA,"United States","","M","Copper","Barium-Barite","","Unknown","","","Occurrence","Barite, Chalcopyrite, Galena, Pyrite","Quartz","","","","Diorite","Diorite"
"366","Silver Bar",56.06088,-130.14564,NA,"United States","","M","Lead","Barium-Barite","","Unknown","","","Occurrence","Barite, Chalcopyrite, Galena, Pyrite","Quartz","","McVey","","Diorite","Diorite"
"367","Silver Bar",56.06088,-130.14564,NA,"United States","","M","Copper","Barium-Barite","","Unknown","","","Occurrence","Barite, Chalcopyrite, Galena, Pyrite","Quartz","","McVey","","Diorite","Diorite"
"368","Liberty",56.05366,-130.17258,NA,"United States","","M","Lead","","","Unknown","","N","Occurrence","Galena","Quartz","","","","Diorite","Diorite"
"369","Nothiger",56.05088,-130.17981,NA,"United States","","M","Lead","","","Unknown","","","Prospect","Galena, Pyrite","Quartz","","Standard","","Diorite","Diorite"
"370","Evening Star",56.06866,-130.17287,NA,"United States","","M","Lead","","","Unknown","","","Prospect","Galena","Quartz","","Morning Star","","Diorite","Diorite"
"371","Ibex",56.07588,-130.18287,NA,"United States","","M","Lead","","","Unknown","","","Prospect","Chalcopyrite, Galena, Pyrite, Sphalerite, Tetrahedrite","Quartz","","","","Argillite","Diorite"
"372","Ibex",56.07588,-130.18287,NA,"United States","","M","Silver","","","Unknown","","","Prospect","Chalcopyrite, Galena, Pyrite, Sphalerite, Tetrahedrite","Quartz","","","","Argillite","Diorite"
"373","Ibex",56.07588,-130.18287,NA,"United States","","M","Zinc","","","Unknown","","","Prospect","Chalcopyrite, Galena, Pyrite, Sphalerite, Tetrahedrite","Quartz","","","","Argillite","Diorite"
"374","Unnamed Occurence",54.73584,-132.16009,NA,"United States","","M","Zinc","","","Unknown","","N","Occurrence","Sphalerite","Pyrite","","","","Siltstone",""
"375","Mcleod Bay Prospect",54.68861,-132.71288,NA,"United States","","M","Gold","","Copper, Lead","Unknown","Vein","N","Occurrence","Chalcopyrite, Galena, Gold","Pyrite, Quartz","Surface/Underground","Claims: Daykoo, Delaware, Elk, Elks Pup, Golden Charoit, Mcleod, New York, Virginia, West Virginia","","Schist",""
"376","Silver Coin",56.07755,-130.1687,NA,"United States","","M","Lead","","","Unknown","","","Occurrence","Chalcopyrite, Galena, Malachite, Pyrite","Quartz","","","","Diorite","Diorite"
"377","Silver Coin",56.07755,-130.1687,NA,"United States","","M","Copper","","","Unknown","","","Occurrence","Chalcopyrite, Galena, Malachite, Pyrite","Quartz","","","","Diorite","Diorite"
"378","Alice Prospect",54.71917,-132.11287,NA,"United States","","M","Copper","","","Unknown","","N","Occurrence","Chalcopyrite","","","","","Limestone",""
"379","Feickert",54.7414,-132.1462,NA,"United States","","M","Copper","","","Unknown","Vein","N","Occurrence","Chalcopyrite","Quartz","","","","Diorite",""
"380","Forrester Point Occurence",54.8386,-133.53514,NA,"United States","","M","Molybdenum","","","Unknown","","N","Occurrence","Molybdenite","Pyrite","","","","Quartz Monzonite","Quartz Monzonite"
"381","Goodhope Prospect",54.86917,-132.28788,NA,"United States","","M","Copper","","","Unknown","Vein","N","Occurrence","Chalcopyrite","Pyrite, Quartz","Surface/Underground","","Veins Are Near Contact With Dikes","Volcanic Rock (Aphanitic)","Granite"
"382","Lakeside Prospect",54.99416,-132.75179,NA,"United States","","M","Copper","","","Unknown","","N","Occurrence","Chalcopyrite","","Underground","","Shear Zones Form Greenstone/Pyroxenite Contact","Greenstone","Diorite"
"383","Lucky Strike Occurrence",54.89139,-132.95457,NA,"United States","","M","Copper","","","Unknown","","N","Occurrence","Chalcopyrite","Limonite, Pyrite, Quartz","","","","Schist",""
"384","Mallard Bay Occurrence",54.77612,-132.01843,NA,"United States","","M","Iron","","","Unknown","","N","Occurrence","Magnetite","","","","","Pyroxenite","Pyroxenite"
"385","Unnamed Prospect",54.93306,-132.21288,NA,"United States","","M","Gold","","","Unknown","","N","Occurrence","","Calcite, Chlorite, Pyrite","","","","Metavolcanic Rock",""
"386","Mount Vesta Prospect",54.93305,-132.96012,NA,"United States","","M","Gold","Copper","Zinc, Lead","Unknown","Vein","N","Occurrence","Chalcopyrite, Galena, Sphalerite, Tetrahedrite","","Surface/Underground","","","Limestone",""
"387","Mount Vesta Prospect",54.93305,-132.96012,NA,"United States","","M","Silver","Copper","Zinc, Lead","Unknown","Vein","N","Occurrence","Chalcopyrite, Galena, Sphalerite, Tetrahedrite","","Surface/Underground","","","Limestone",""
"388","Ranger Prospect",54.83306,-132.31566,NA,"United States","","M","Copper","","Iron","Unknown","","N","Occurrence","Chalcopyrite, Magnetite","","Surface/Underground","","","Volcanic Rock (Aphanitic)","Granite"
"389","Polson and Ickis Group",54.94973,-132.02398,NA,"United States","","M","Gold","","REE","Unknown","","N","Occurrence","Bornite, Chalcopyrite, Chrysocolla, Xenotime","Barite, Calcite, Hematite, Pyrite, Quartz","Surface/Underground","Prospect: Veta, Wano, Polson and Ickis, Claims: Apex, Astor, Daly-West, Hillside","","Monzonite","Diabase"
"390","Polson and Ickis Group",54.94973,-132.02398,NA,"United States","","M","Copper","","REE","Unknown","","N","Occurrence","Bornite, Chalcopyrite, Chrysocolla, Xenotime","Barite, Calcite, Hematite, Pyrite, Quartz","Surface/Underground","Prospect: Veta, Wano, Polson and Ickis, Claims: Apex, Astor, Daly-West, Hillside","","Monzonite","Diabase"
"391","Spik Prospect",54.77195,-132.06287,NA,"United States","","M","Copper","","","Unknown","","N","Occurrence","Bornite, Chalcopyrite","","","Hanson Prospect","","Greenstone","Granite"
"392","Stonerock Bay Prospect",54.76917,-132.00175,NA,"United States","","M","Uranium","","","Unknown","Vein","N","Occurrence","","Hematite, Quartz","","","","Andesite","Andesite"
"393","Wood Cove Occurrence",54.82193,-133.52124,NA,"United States","","M","Molybdenum","","Copper","Unknown","Vein","N","Occurrence","Chalcopyrite, Molybdenite","Epidote, Pyrite, Pyrrhotite, Quartz","","","","Quartz Monzonite","Quartz Monzonite"
"394","Cheri Prospect",54.88862,-132.10454,NA,"United States","","M","Uranium","","","Unknown","","N","Occurrence","Allanite","","","","","Quartzite","Peralkaline Granite"
"395","Carol Ann Prospects",54.90529,-132.10454,NA,"United States","","M","Uranium","","","Unknown","","N","Occurrence","","Quartz","","","","Dacite","Peralkaline Granite"
"396","Blue Fiord",60.49511,-148.23894,NA,"United States","","M","Gold","","","Unknown","Vein","N","Occurrence","Gold","Pyrite, Quartz","","","","Slate",""
"397","I and L Prospect 3",54.91751,-132.13788,NA,"United States","","M","Uranium","","REE","Unknown","","N","Occurrence","Brannerite, Parisite, Uraninite, Xenotime","Albite, Ilmenite, Quartz, Sphene, Zircon","","I and L Prospect 4, I and L Prospect 1, I and L Prospect 2, Limestone Creek, Bedrock Creek, Kramer Cree, Russian John Creek, Ptormigan Creek","","Peralkaline Granite","Peralkaline Granite"
"398","I and L Prospect 3",54.91751,-132.13788,NA,"United States","","M","Thorium","","REE","Unknown","","N","Occurrence","Brannerite, Parisite, Uraninite, Xenotime","Albite, Ilmenite, Quartz, Sphene, Zircon","","I and L Prospect 4, I and L Prospect 1, I and L Prospect 2, Limestone Creek, Bedrock Creek, Kramer Cree, Russian John Creek, Ptormigan Creek","","Peralkaline Granite","Peralkaline Granite"
"399","I and L Prospects, 1 and 2",54.92195,-132.17955,NA,"United States","","M","Uranium","","REE","Unknown","","N","Occurrence","","Albite, Quartz","","","","Peralkaline Granite","Peralkaline Granite"
"400","I and L Prospects, 1 and 2",54.92195,-132.17955,NA,"United States","","M","Thorium","","REE","Unknown","","N","Occurrence","","Albite, Quartz","","","","Peralkaline Granite","Peralkaline Granite"
"401","Number One Prospect, I, L and M Prospects",54.91861,-132.91568,NA,"United States","","M","Uranium","","","Unknown","","N","Occurrence","","","","Number Two Prospect, I,L, and M Prospects","","Peralkaline Granite","Peralkaline Granite"
"402","Number Two Prospect, I,L, and M Prospects",54.91362,-132.14621,NA,"United States","","M","Uranium","","","Unknown","","N","Occurrence","","Hematite","","","","Peralkaline Granite","Peralkaline Granite"
"403","Atom Marietta Prospect",54.91362,-132.12955,NA,"United States","","M","Uranium","","","Unknown","","N","Occurrence","Brannerite, Uraninite","Calcite, Chlorite, Hematite, Quartz","","","","Mafic Intrusive Rock","Peralkaline Granite"
"404","Atom Marietta Prospect",54.91362,-132.12955,NA,"United States","","M","Thorium","","","Unknown","","N","Occurrence","Brannerite, Uraninite","Calcite, Chlorite, Hematite, Quartz","","","","Mafic Intrusive Rock","Peralkaline Granite"
"405","Little Joe Prospect",54.92195,-132.14621,NA,"United States","","M","Uranium","","","Unknown","","N","Occurrence","","Albite, Quartz, Riebeckite, Zircon","","","","Peralkaline Granite","Peralkaline Granite"
"406","Little Joe Prospect",54.92195,-132.14621,NA,"United States","","M","Thorium","","","Unknown","","N","Occurrence","","Albite, Quartz, Riebeckite, Zircon","","","","Peralkaline Granite","Peralkaline Granite"
"407","Geiger Prospect",54.96084,-132.15733,NA,"United States","","M","Uranium","","","Unknown","Vein","N","Occurrence","","Albite, Quartz, Zircon","","","","Plutonic Rock",""
"408","Texas Discovery",56.06366,-130.1987,NA,"United States","","M","Silver","","","Unknown","","","Occurrence","Chalcopyrite, Galena, Pyrite, Pyrrhotite","Quartz","","","","Diorite","Diorite"
"409","Texas Discovery",56.06366,-130.1987,NA,"United States","","M","Gold","","","Unknown","","","Occurrence","Chalcopyrite, Galena, Pyrite, Pyrrhotite","Quartz","","","","Diorite","Diorite"
"410","Texas Discovery",56.06366,-130.1987,NA,"United States","","M","Copper","","","Unknown","","","Occurrence","Chalcopyrite, Galena, Pyrite, Pyrrhotite","Quartz","","","","Diorite","Diorite"
"411","Texas Discovery",56.06366,-130.1987,NA,"United States","","M","Lead","","","Unknown","","","Occurrence","Chalcopyrite, Galena, Pyrite, Pyrrhotite","Quartz","","","","Diorite","Diorite"
"412","Unnamed",56.22169,-131.74792,NA,"United States","","M","Copper","","","Unknown","","","Occurrence","Chalcopyrite","","","","","Schist",""
"413","Unnamed",56.25976,-131.60181,NA,"United States","","M","Copper","","","Unknown","","","Occurrence","","","","","","",""
"414","Unnamed",56.11976,-131.17179,NA,"United States","","M","Molybdenum","","","Unknown","","","Occurrence","Molybdenite","Diopside, Garnet, Quartz","","","","Skarn (Tactite)",""
"415","Bear Creek (lower)",59.40927,-161.13271,NA,"United States","","M","Gold","Platinum","","Unknown","","","Past Producer","Gold","","","","","Volcanic Rock (Aphanitic)","Granite"
"416","Fox Creek",59.36927,-161.12271,NA,"United States","","M","Gold","","","Unknown","","","Past Producer","Gold","","","","","",""
"417","North Spit (Goodnews Bay)",59.06925,-161.87269,NA,"United States","","M","Chromium","","","Unknown","","","Occurrence","Chromite, Gold, Magnetite","","","","","",""
"418","North Spit (Goodnews Bay)",59.06925,-161.87269,NA,"United States","","M","Gold","","","Unknown","","","Occurrence","Chromite, Gold, Magnetite","","","","","",""
"419","Tyone Creek",59.54927,-161.33273,NA,"United States","","M","Gold","","","Unknown","","","Past Producer","Gold","","","","","",""
"420","Jacksmith Creek",59.38926,-161.58272,NA,"United States","","M","Gold","","","Unknown","","","Prospect","Gold","","","","","",""
"421","Unnamed (tributary to upper Trail Creek)",59.98931,-159.62274,NA,"United States","","M","Gold","","","Unknown","","","Past Producer","Gold","","","","","",""
"422","East Point Mining Co.",60.41175,-149.1784,NA,"United States","","M","Gold","","","Unknown","","S","Past Producer","","Calcite, Pyrite, Pyrrhotite, Quartz","Surface/Underground","","","Siltstone",""
"423","Domingo Creek",59.44926,-161.52272,NA,"United States","","M","Gold","","","Unknown","","","Past Producer","Gold","","","","","","Granite"
"424","Sam Creek",59.83234,-160.79663,NA,"United States","","M","Gold","","","Unknown","","","Prospect","Gold","","","","","Clastic Sedimentary Rock","Mafic Intrusive Rock"
"425","Slate Creek",59.30927,-161.2327,NA,"United States","","M","Gold","","","Unknown","","","Past Producer","Gold","","","","","Volcanic Rock (Aphanitic)","Granite"
"426","Kagati Lake",59.9193,-159.91274,NA,"United States","","M","Antimony","","","Unknown","","","Prospect","Cinnabar, Orpiment, Realgar, Stibnite","Calcite, Quartz, Tourmaline","","","","",""
"427","Kagati Lake",59.9193,-159.91274,NA,"United States","","M","Mercury","","","Unknown","","","Prospect","Cinnabar, Orpiment, Realgar, Stibnite","Calcite, Quartz, Tourmaline","","","","",""
"428","Kagati Lake",59.9193,-159.91274,NA,"United States","","M","Gold","","","Unknown","","","Prospect","Cinnabar, Orpiment, Realgar, Stibnite","Calcite, Quartz, Tourmaline","","","","",""
"429","Unnamed (west bank of Togiak River)",59.29929,-160.17269,NA,"United States","","M","Zinc","Mercury, Gold, Silver, Molybdenum","","Unknown","","","Occurrence","Chalcopyrite, Pyrite, Sphalerite","Quartz","","","","",""
"430","Unnamed (west bank of Togiak River)",59.29929,-160.17269,NA,"United States","","M","Copper","Mercury, Gold, Silver, Molybdenum","","Unknown","","","Occurrence","Chalcopyrite, Pyrite, Sphalerite","Quartz","","","","",""
"431","Kemuk River",59.65763,-159.82771,NA,"United States","","M","Copper","","","Unknown","","N","Occurrence","","","","","","Clastic Sedimentary Rock",""
"432","Olympic Creek",59.33927,-161.22271,NA,"United States","","M","Gold","Platinum","","Unknown","","","Past Producer","Gold","","","","","Volcanic Rock (Aphanitic)","Granite"
"433","Canyon Creek",59.41927,-161.11465,NA,"United States","","M","Gold","","","Unknown","","","Prospect","Gold","","","","","Volcanic Rock (Aphanitic)","Granite"
"434","Lower Daly-Alaska",56.03171,-130.04481,NA,"United States","","M","Zinc","","","Unknown","","","Past Producer","Arsenopyrite, Chalcopyrite, Freibergite, Galena, Pyrite, Pyrrhotite, Sphalerite, Tetrahedrite, Silver","Calcite, Quartz","","Iron, Elevenmile","","Greenstone","Diorite"
"435","Lower Daly-Alaska",56.03171,-130.04481,NA,"United States","","M","Lead","","","Unknown","","","Past Producer","Arsenopyrite, Chalcopyrite, Freibergite, Galena, Pyrite, Pyrrhotite, Sphalerite, Tetrahedrite, Silver","Calcite, Quartz","","Iron, Elevenmile","","Greenstone","Diorite"
"436","Lower Daly-Alaska",56.03171,-130.04481,NA,"United States","","M","Gold","","","Unknown","","","Past Producer","Arsenopyrite, Chalcopyrite, Freibergite, Galena, Pyrite, Pyrrhotite, Sphalerite, Tetrahedrite, Silver","Calcite, Quartz","","Iron, Elevenmile","","Greenstone","Diorite"
"437","Lower Daly-Alaska",56.03171,-130.04481,NA,"United States","","M","Copper","","","Unknown","","","Past Producer","Arsenopyrite, Chalcopyrite, Freibergite, Galena, Pyrite, Pyrrhotite, Sphalerite, Tetrahedrite, Silver","Calcite, Quartz","","Iron, Elevenmile","","Greenstone","Diorite"
"438","Lower Daly-Alaska",56.03171,-130.04481,NA,"United States","","M","Silver","","","Unknown","","","Past Producer","Arsenopyrite, Chalcopyrite, Freibergite, Galena, Pyrite, Pyrrhotite, Sphalerite, Tetrahedrite, Silver","Calcite, Quartz","","Iron, Elevenmile","","Greenstone","Diorite"
"439","Upper Daly-Alaska",56.02894,-130.03925,NA,"United States","","M","Copper","","","Unknown","","","Past Producer","Arsenopyrite, Chalcopyrite, Galena, Pyrite, Pyrrhotite, Sphalerite, Tetrahedrite","Calcite, Quartz","","Hoosier, Bertha, Western","","",""
"440","Upper Daly-Alaska",56.02894,-130.03925,NA,"United States","","M","Zinc","","","Unknown","","","Past Producer","Arsenopyrite, Chalcopyrite, Galena, Pyrite, Pyrrhotite, Sphalerite, Tetrahedrite","Calcite, Quartz","","Hoosier, Bertha, Western","","",""
"441","Upper Daly-Alaska",56.02894,-130.03925,NA,"United States","","M","Lead","","","Unknown","","","Past Producer","Arsenopyrite, Chalcopyrite, Galena, Pyrite, Pyrrhotite, Sphalerite, Tetrahedrite","Calcite, Quartz","","Hoosier, Bertha, Western","","",""
"442","Upper Daly-Alaska",56.02894,-130.03925,NA,"United States","","M","Gold","","","Unknown","","","Past Producer","Arsenopyrite, Chalcopyrite, Galena, Pyrite, Pyrrhotite, Sphalerite, Tetrahedrite","Calcite, Quartz","","Hoosier, Bertha, Western","","",""
"443","Upper Daly-Alaska",56.02894,-130.03925,NA,"United States","","M","Silver","","","Unknown","","","Past Producer","Arsenopyrite, Chalcopyrite, Galena, Pyrite, Pyrrhotite, Sphalerite, Tetrahedrite","Calcite, Quartz","","Hoosier, Bertha, Western","","",""
"444","Swennings Greenpoint",56.01477,-130.26565,NA,"United States","","M","Molybdenum","Copper, Zinc","","Unknown","","","Occurrence","Galena, Molybdenite","Quartz","","","","Hornfels","Quartz Monzonite"
"445","Swennings Greenpoint",56.01477,-130.26565,NA,"United States","","M","Lead","Copper, Zinc","","Unknown","","","Occurrence","Galena, Molybdenite","Quartz","","","","Hornfels","Quartz Monzonite"
"446","Swennings Greenpoint",56.01477,-130.26565,NA,"United States","","M","Silver","Copper, Zinc","","Unknown","","","Occurrence","Galena, Molybdenite","Quartz","","","","Hornfels","Quartz Monzonite"
"447","Happy Creek Occurrence",62.39995,-157.99599,NA,"United States","","M","Antimony","","","Unknown","","N","Occurrence","Stibnite","","","","","Monzonite",""
"448","Greenpoint",56.02477,-130.3237,NA,"United States","","M","Silver","","","Unknown","","","Prospect","Chalcopyrite, Galena, Molybdenite, Pyrite","Calcite, Quartz","","","","Hornfels",""
"449","Greenpoint",56.02477,-130.3237,NA,"United States","","M","Copper","","","Unknown","","","Prospect","Chalcopyrite, Galena, Molybdenite, Pyrite","Calcite, Quartz","","","","Hornfels",""
"450","Greenpoint",56.02477,-130.3237,NA,"United States","","M","Molybdenum","","","Unknown","","","Prospect","Chalcopyrite, Galena, Molybdenite, Pyrite","Calcite, Quartz","","","","Hornfels",""
"451","Greenpoint",56.02477,-130.3237,NA,"United States","","M","Lead","","","Unknown","","","Prospect","Chalcopyrite, Galena, Molybdenite, Pyrite","Calcite, Quartz","","","","Hornfels",""
"452","Wattamuse Creek",59.3326,-161.23604,NA,"United States","","M","Gold","","","Unknown","Placer","S","Producer","Gold","","","","","Gravel","Granite"
"453","Rainy Creek",59.99931,-160.13608,NA,"United States","","M","Gold","Mercury","","Unknown","Placer","S","Past Producer","Cinnabar, Gold","","","","","",""
"454","Camp Six",56.51169,-132.05573,NA,"United States","","M","Molybdenum","","","Unknown","","","Prospect","Molybdenite","Fluorite, Quartz, Topaz","","Huff's Prospect, Nelson Glacier, Whistlepig","","Granite","Granite"
"455","Unnamed (near Hamilton Creek)",56.86584,-133.66385,NA,"United States","","M","Uranium","","","Unknown","","","Occurrence","Carbonate-Fluorapatite","","","","","",""
"456","Big Passage Copper Mining Co.",60.43317,-147.65836,NA,"United States","","M","Copper","Zinc","","Unknown","","N","Occurrence","Chalcopyrite, Sphalerite","Chlorite, Epidote, Pyrrhotite, Quartz","","","","Greenstone",""
"457","Lost Zarembo",56.38085,-132.90075,NA,"United States","","M","Zinc","","","Unknown","","","Occurrence","Chalcopyrite, Galena, Pyrite, Sphalerite","","","","","Rhyolite","Rhyolite"
"458","Lost Zarembo",56.38085,-132.90075,NA,"United States","","M","Lead","","","Unknown","","","Occurrence","Chalcopyrite, Galena, Pyrite, Sphalerite","","","","","Rhyolite","Rhyolite"
"459","Lost Zarembo",56.38085,-132.90075,NA,"United States","","M","Copper","","","Unknown","","","Occurrence","Chalcopyrite, Galena, Pyrite, Sphalerite","","","","","Rhyolite","Rhyolite"
"460","Halobia",56.67168,-133.25994,NA,"United States","","M","Silver","Arsenic, Copper, Barium-Barite","","Unknown","","","Prospect","Galena, Pyrite, Sphalerite","","","","","Phyllite",""
"461","Halobia",56.67168,-133.25994,NA,"United States","","M","Zinc","Arsenic, Copper, Barium-Barite","","Unknown","","","Prospect","Galena, Pyrite, Sphalerite","","","","","Phyllite",""
"462","Halobia",56.67168,-133.25994,NA,"United States","","M","Lead","Arsenic, Copper, Barium-Barite","","Unknown","","","Prospect","Galena, Pyrite, Sphalerite","","","","","Phyllite",""
"463","Hydropit",56.37363,-132.9188,NA,"United States","","M","Zinc","","","Unknown","","","Occurrence","Arsenopyrite, Bornite, Chalcopyrite, Galena, Magnetite, Sphalerite","Quartz","","","","Diorite","Andesite"
"464","Hydropit",56.37363,-132.9188,NA,"United States","","M","Lead","","","Unknown","","","Occurrence","Arsenopyrite, Bornite, Chalcopyrite, Galena, Magnetite, Sphalerite","Quartz","","","","Diorite","Andesite"
"465","Hydropit",56.37363,-132.9188,NA,"United States","","M","Copper","","","Unknown","","","Occurrence","Arsenopyrite, Bornite, Chalcopyrite, Galena, Magnetite, Sphalerite","Quartz","","","","Diorite","Andesite"
"466","Taylor Creek",56.79363,-133.36383,NA,"United States","","M","Zinc","","","Unknown","","","Prospect","Chalcopyrite, Galena, Pyrite, Sphalerite","","","","","Marble","Diabase"
"467","Taylor Creek",56.79363,-133.36383,NA,"United States","","M","Lead","","","Unknown","","","Prospect","Chalcopyrite, Galena, Pyrite, Sphalerite","","","","","Marble","Diabase"
"468","Taylor Creek",56.79363,-133.36383,NA,"United States","","M","Silver","","","Unknown","","","Prospect","Chalcopyrite, Galena, Pyrite, Sphalerite","","","","","Marble","Diabase"
"469","Taylor Creek",56.79363,-133.36383,NA,"United States","","M","Copper","","","Unknown","","","Prospect","Chalcopyrite, Galena, Pyrite, Sphalerite","","","","","Marble","Diabase"
"470","Northern Copper Company",56.88668,-133.37496,NA,"United States","","M","Copper","","","Unknown","","","Prospect","Chalcopyrite, Magnetite, Pyrrhotite, Sphalerite","","","Tower Arm Copper, Portage Bay Copper Company","","Granite",""
"471","Northern Copper Company",56.88668,-133.37496,NA,"United States","","M","Zinc","","","Unknown","","","Prospect","Chalcopyrite, Magnetite, Pyrrhotite, Sphalerite","","","Tower Arm Copper, Portage Bay Copper Company","","Granite",""
"472","Byers Prospect",60.87763,-147.44284,NA,"United States","","M","Copper","","","Unknown","","N","Occurrence","","","","","","Clastic Sedimentary Rock",""
"473","Calif. - Alaska Mining Co.",60.42592,-149.26313,NA,"United States","","M","Gold","","Lead, Zinc","Unknown","","S","Past Producer","Galena, Gold","Calcite, Pyrite, Quartz","Underground","","","Siltstone",""
"474","Unnamed  (near mouth of Port Camden)",56.80584,-133.9508,NA,"United States","","M","Uranium","","","Unknown","","","Prospect","","","","","","",""
"475","Unnamed  (near mouth of Port Camden)",56.80584,-133.9508,NA,"United States","","M","Thorium","","","Unknown","","","Prospect","","","","","","",""
"476","Unnamed (near Point St. Albans)",56.10972,-133.95882,NA,"United States","","M","Lead","Antimony","","Unknown","","","Occurrence","Arsenopyrite, Galena, Pyrite, Sphalerite, Berthierite","Quartz","","","","Diorite","Diorite"
"477","Unnamed (near Point St. Albans)",56.10972,-133.95882,NA,"United States","","M","Zinc","Antimony","","Unknown","","","Occurrence","Arsenopyrite, Galena, Pyrite, Sphalerite, Berthierite","Quartz","","","","Diorite","Diorite"
"478","Unnamed (near Point St. Albans)",56.10972,-133.95882,NA,"United States","","M","Silver","Antimony","","Unknown","","","Occurrence","Arsenopyrite, Galena, Pyrite, Sphalerite, Berthierite","Quartz","","","","Diorite","Diorite"
"479","Helen S",56.56974,-133.06798,NA,"United States","","M","Gold","Barium-Barite","","Unknown","","","Producer","Chalcopyrite, Galena, Gold, Sphalerite","Quartz","","Olympic Mining","","Greenstone","Mafic Intrusive Rock"
"480","Helen S",56.56974,-133.06798,NA,"United States","","M","Zinc","Barium-Barite","","Unknown","","","Producer","Chalcopyrite, Galena, Gold, Sphalerite","Quartz","","Olympic Mining","","Greenstone","Mafic Intrusive Rock"
"481","Helen S",56.56974,-133.06798,NA,"United States","","M","Lead","Barium-Barite","","Unknown","","","Producer","Chalcopyrite, Galena, Gold, Sphalerite","Quartz","","Olympic Mining","","Greenstone","Mafic Intrusive Rock"
"482","Helen S",56.56974,-133.06798,NA,"United States","","M","Copper","Barium-Barite","","Unknown","","","Producer","Chalcopyrite, Galena, Gold, Sphalerite","Quartz","","Olympic Mining","","Greenstone","Mafic Intrusive Rock"
"483","Exchange",56.42168,-132.53379,NA,"United States","","M","Gold","","","Unknown","","","Prospect","Galena, Gold, Pyrite, Sphalerite","Quartz","","","","Granite","Granite"
"484","Unnamed Near Salmon Bay",56.31945,-133.17075,NA,"United States","","M","Uranium","REE","Copper","Unknown","","N","Occurrence","Bastnaesite, Chalcopyrite, Monazite, Parisite, Thorite","Hematite, Pyrite","","","","Siltstone","Lamprophyre"
"485","Unnamed Near Salmon Bay",56.31945,-133.17075,NA,"United States","","M","Thorium","REE","Copper","Unknown","","N","Occurrence","Bastnaesite, Chalcopyrite, Monazite, Parisite, Thorite","Hematite, Pyrite","","","","Siltstone","Lamprophyre"
"486","Unnamed (in Glacier Basin)",56.47975,-132.03878,NA,"United States","","M","Lead","Molybdenum","","Unknown","","","Prospect","Galena, Sphalerite","Fluorite, Quartz","","","","Granulite","Diorite"
"487","Unnamed (in Glacier Basin)",56.47975,-132.03878,NA,"United States","","M","Zinc","Molybdenum","","Unknown","","","Prospect","Galena, Sphalerite","Fluorite, Quartz","","","","Granulite","Diorite"
"488","Hattie",56.53168,-133.04798,NA,"United States","","M","Gold","","","Unknown","","","Producer","Galena, Sphalerite, Pyrite, Chalcopyrite","Quartz","","","","Felsic Metamorphic Rock","Greenstone"
"489","Maid of Mexico",56.56474,-133.03687,NA,"United States","","M","Gold","Silver, Copper, Lead, Zinc","","Unknown","","","Producer","Chalcopyrite, Galena, Gold, Pyrite, Sphalerite","Quartz","","Maid of Texas","","Mudstone","Tuff"
"490","Silver Star",56.83974,-133.26189,NA,"United States","","M","Silver","","","Unknown","","","Prospect","Chalcopyrite, Gold, Magnetite, Pyrite","Calcite, Quartz","","","","Schist","Diorite"
"491","Silver Star",56.83974,-133.26189,NA,"United States","","M","Gold","","","Unknown","","","Prospect","Chalcopyrite, Gold, Magnetite, Pyrite","Calcite, Quartz","","","","Schist","Diorite"
"492","Carter Claims",60.94928,-147.95175,NA,"United States","","M","Gold","","","Unknown","Vein","N","Occurrence","Gold","","","Claims: O.K. No. 1, New York","","Siltstone",""
"493","Case Mine",60.50147,-149.30786,NA,"United States","","M","Gold","","","Unknown","Vein","S","Past Producer","Gold","Quartz","","Grant Lake Mine","","",""
"494","Cathead Bay",60.27788,-147.83808,NA,"United States","","M","Copper","","","Unknown","","N","Occurrence","","Pyrite","","","","Basalt","Basalt"
"495","Unnamed (vicinity Kane Peak)",56.98363,-133.09883,NA,"United States","","M","PGE","","","Unknown","","","Occurrence","Chalcopyrite, Chromite, Magnetite, Pentlandite, Pyrrhotite","","","","","Pyroxenite","Gabbro,Peridotite,Dunite,Pyroxenite"
