"","site_name","latitude","longitude","region","country","county","com_type","commod1","commod2","commod3","oper_type","dep_type","prod_size","dev_stat","ore","gangue","work_type","names","ore_ctrl","hrock_type","arock_type"
"1","Lookout Prospect",55.05612,-132.14344,NA,"United States","","M","Copper","Gold, Silver","","Unknown","","N","Occurrence","Chalcopyrite, Covellite, Pyrite","Quartz, Sericite","","Conundrum, Mammoth, Wakefield Minerals Co.","","Schist",""
"2","Lucky Find Prospect",55.52751,-132.68514,NA,"United States","","M","Copper","Gold","","Unknown","","N","Occurrence","Chalcopyrite, Pyrite","Calcite, Quartz, Siderite","Underground","","Vein Follows Contact","Diabase",""
"3","Mccullough Prospect",55.97751,-132.99906,NA,"United States","","M","Copper","","Zinc, Gold","Unknown","","N","Occurrence","Chalcopyrite, Pyrite, Sphalerite","Quartz","","Claims: Horseshoe, Copper, Lake Bay","","Siltstone",""
"4","Lucky Jim Claim",55.52195,-132.68653,NA,"United States","","M","Gold","","Copper, Lead","Unknown","","N","Occurrence","Galena, Malachite, Pyrite","","","","","Granite","Granite"
"5","Matilda Occurrence",55.14556,-132.05233,NA,"United States","","M","Gold","","","Unknown","","N","Occurrence","Pyrite","","","","","Mica Schist",""
"6","Marion Prospect",55.14695,-132.48512,NA,"United States","","M","Copper","","Lead","Unknown","","N","Occurrence","Chalcopyrite, Galena, Pyrite","","Underground","Nutqua Gold Mining Co.","","Schist",""
"7","Marble Heart Prospect",55.3289,-132.76013,NA,"United States","","M","Lead","","","Unknown","","N","Occurrence","Galena","","","","","Limestone",""
"8","Morning Star Prospect",55.56362,-132.45042,NA,"United States","","M","Gold","Copper","Iron","Unknown","","N","Occurrence","Chalcopyrite, Magnetite, Pyrite","","","","","",""
"9","Monday Prospect",55.50529,-132.63237,NA,"United States","","M","Silver","Gold","Lead","Unknown","Vein","N","Occurrence","Galena, Pyrite","Quartz, Vesuvianite","","","","Slate","Andesite"
"10","Miller Brothers Claim",55.22334,-132.63513,NA,"United States","","M","Copper","","","Unknown","","N","Occurrence","","","","","","",""
"11","Miller Brothers Claim",55.22334,-132.63513,NA,"United States","","M","Gold","","","Unknown","","N","Occurrence","","","","","","",""
"12","Midnight Sun Prospect",55.65252,-132.02541,NA,"United States","","M","Gold","","","Unknown","","N","Occurrence","Pyrite","","","","","Greenschist",""
"13","Moonshine Occurrence",55.08583,-133.17125,NA,"United States","","M","Silver","Lead","","Unknown","","N","Occurrence","Galena","","","","","",""
"14","Moonshine Prospect",55.14445,-132.05371,NA,"United States","","M","Gold","","Copper","Unknown","","N","Occurrence","Chalcopyrite, Pyrite, Tetrahedrite","","","","Near Contact Between Limestone And Quartzite","Limestone",""
"15","Edith M. Prospect",55.06223,-132.13538,NA,"United States","","M","Gold","","Copper","Unknown","","N","Occurrence","Chalcopyrite, Pyrite","","Underground","","","Greenschist",""
"16","Jumbo Prosect",55.14195,-132.05177,NA,"United States","","M","Gold","Silver","","Unknown","","N","Occurrence","Tetrahedrite","","Underground","","","Phyllite",""
"17","Hula Hula Claim",55.15501,-132.15872,NA,"United States","","M","Gold","","","Unknown","","N","Occurrence","Gold","","","","","",""
"18","Unnamed Occurrence",55.29973,-132.70041,NA,"United States","","M","Copper","","","Unknown","","N","Occurrence","Chalcopyrite, Pyrite","","","","","Limestone",""
"19","Unnamed Occurrance",55.51223,-132.53098,NA,"United States","","M","Copper","","","Unknown","","N","Occurrence","Chalcopyrite, Pyrite","","","","Skarn Follows Contact","Mica Schist","Diorite"
"20","Hatchet Occurrence",55.43584,-132.46013,NA,"United States","","M","Gold","","","Unknown","","N","Occurrence","Gold, Pyrite","","","","","Slate",""
"21","Beauty",55.14084,-132.05038,NA,"United States","","M","Silver","Gold, Copper","","Unknown","","N","Occurrence","Chalcopyrite, Malachite, Pyrite, Tetrahedrite","","Underground","","","Limestone",""
"22","Hole In the Wall Prospects",55.53029,-132.31152,NA,"United States","","M","Copper","","","Unknown","","N","Occurrence","","Calcite, Epidote, Garnet, Magnetite","","Claims: Eureka, Fredricks, Hilma, Pelaska, Pennsylvania, Plunley, Sunrise, Nuckolls","Mineralization Follows Limestone-Diorite Contact","Limestone","Diorite"
"23","Brown and Metzdorf Prospect",55.58862,-132.47959,NA,"United States","","M","Copper","","Molybdenum, Gold, Silver","Unknown","","N","Occurrence","Molybdenite, Pyrite","Epidote, Garnet","","","Basic Dike Forms Footwall Of Deposit","Quartzite","Limestone"
"24","Copper King Prospect",55.55667,-132.4393,NA,"United States","","M","Copper","Gold","Iron","Unknown","","N","Occurrence","Chalcopyrite, Magnetite, Pyrite","Calcite, Epidote, Quartz","Surface/Underground","","","Greenstone",""
"25","Unnamed Occurrence",55.48445,-132.52819,NA,"United States","","M","Copper","","","Unknown","","N","Occurrence","Chalcopyrite","","","","Mineralized Contact","Limestone","Diorite"
"26","Gould Prospect",55.21362,-132.60457,NA,"United States","","M","Copper","","","Unknown","Contact Metasomatic","N","Occurrence","Chalcopyrite, Pyrite, Pyrrhotite","Epidote, Garnet","","","Ore Body Follows Contact","Quartzite","Diorite"
"27","Gladstone Prospect",55.21112,-132.06011,NA,"United States","","M","Copper","","Silver, Gold","Unknown","","N","Occurrence","Chalcopyrite, Pyrite","Calcite, Graphite, Quartz","","","","Limestone","Diabase"
"28","Hetta Mountain Prospects",55.19973,-132.56846,NA,"United States","","M","Copper","Zinc","Silver, Gold, Molybdenum, Cobalt","Unknown","","N","Occurrence","Chalcopyrite, Sphalerite","Diopside, Garnet, Pyrite, Pyrrhotite, Quartz","","","Northern Prospect Follows Dike","Skarn (Tactite)","Diorite"
"29","Unnamed Occurrence",55.57751,-132.64209,NA,"United States","","M","Copper","Lead","Tungsten","Unknown","","N","Occurrence","Chalcopyrite, Galena, Pyrite, Pyrrhotite, Scheelite","","","","","Schist","Diorite"
"30","Coleman",55.56084,-132.42958,NA,"United States","","M","Copper","","","Unknown","Unknown","N","Occurrence","","","","Blackbird, Kansas","","",""
"31","Constitution Prospect",55.54001,-132.8046,NA,"United States","","M","Gold","Copper","Lead, Zinc","Unknown","","N","Occurrence","Chalcopyrite, Gold, Pyrite","","Surface/Underground","","","Amphibolite","Gabbro"
"32","Unnamed Occurrence",55.52749,-133.63656,NA,"United States","","M","Copper","","Molybdenum, Nickel","Unknown","","N","Occurrence","Chalcopyrite, Pyrrhotite","","","","","Schist","Granite"
"33","Cutter Prospect",55.52751,-132.67125,NA,"United States","","M","Gold","","","Unknown","Unknown","N","Occurrence","","","","","","Diabase","Diabase"
"34","Dama Prospects",55.05473,-132.1226,NA,"United States","","M","Copper","","Gold","Unknown","","N","Occurrence","Chalcopyrite, Pyrite","","Underground","Trio, Copper Cliff","Mineralized Zones Follow Trend Of Schist","Greenschist",""
"35","Dew Drop Prospect",55.51779,-132.7907,NA,"United States","","M","Gold","","Copper, Lead","Unknown","","N","Occurrence","Chalcopyrite, Galena, Pyrite","","","Rose","","Plutonic Rock",""
"36","Dew Drop Prospect",55.51779,-132.7907,NA,"United States","","M","Silver","","Copper, Lead","Unknown","","N","Occurrence","Chalcopyrite, Galena, Pyrite","","","Rose","","Plutonic Rock",""
"37","Fortune Prospect",55.14417,-132.05121,NA,"United States","","M","Gold","Copper","","Unknown","","N","Occurrence","Chalcopyrite, Gold, Pyrite, Tetrahedrite","","","Fortuna","","Limestone",""
"38","Flagstaff Mining Co.",55.53584,-132.66431,NA,"United States","","M","Gold","Copper, Lead, Silver","Zinc","Unknown","","S","Past Producer","Chalcocite, Chalcopyrite, Copper, Covellite, Galena, Gold, Pyrite, Sphalerite","","Surface/Underground","Treasure, Last Chance","","Diorite","Diorite,Diabase"
"39","Golden Fleece Mining Co.",55.15084,-132.05788,NA,"United States","","M","Gold","Silver","","Unknown","","S","Past Producer","Gold, Pyrite, Tetrahedrite","","Surface/Underground","Beulah, Copper Lake","Veins Follow Blue Limestone-White Limestone Contact","Limestone","Diabase"
"40","Buckhorn Claims",55.53445,-132.68237,NA,"United States","","M","Gold","","","Unknown","","N","Occurrence","Gold","","","","","Granite","Granite"
"41","Keystone Prospect",55.6178,-132.04346,NA,"United States","","M","Gold","","","Unknown","Stockwork","N","Occurrence","Pyrite","","Underground","London","","Schist",""
"42","Keystone Prospect",55.6178,-132.04346,NA,"United States","","M","Silver","","","Unknown","Stockwork","N","Occurrence","Pyrite","","Underground","London","","Schist",""
"43","Ketchikan Copper Co.",55.21279,-132.32318,NA,"United States","","M","Lead","Silver, Gold","","Unknown","","N","Occurrence","Galena, Sphalerite","Chlorite, Quartz, Sericite","Surface/Underground","Polymetal Lode, Research","","Schist",""
"44","Helm Bay King Mining Co.",55.67474,-132.04902,NA,"United States","","M","Gold","","Lead, Copper","Unknown","","S","Past Producer","Chalcopyrite, Galena, Gold","Calcite, Chlorite, Quartz","","Alaska Vein, Bonanza Vein","","Greenschist",""
"45","Moonshine Mine",55.16917,-132.38651,NA,"United States","","M","Silver","Lead","Copper, Zinc","Unknown","","S","Past Producer","Chalcopyrite, Galena, Sphalerite","Calcite, Pyrite, Quartz","Surface/Underground","Alaska Galena Co.","","Limestone",""
"46","Cascade Mine",55.48029,-132.73653,NA,"United States","","M","Gold","","Copper, Lead, Zinc, Silver","Unknown","","S","Past Producer","Chalcopyrite, Galena, Pyrite, Sphalerite","","Surface/Underground","","","Mafic Intrusive Rock","Mafic Intrusive Rock"
"47","Unnamed Prospect",55.27751,-132.61569,NA,"United States","","M","Lead","Zinc","Copper","Unknown","","N","Occurrence","Chalcopyrite, Galena, Sphalerite","Calcite, Epidote, Garnet, Quartz, Wollastonite","","","","Limestone",""
"48","Unnamed Occurrence",55.04723,-132.0951,NA,"United States","","M","Gold","","","Unknown","","N","Occurrence","","","","","","Volcanic Rock (Aphanitic)",""
"49","House Occurrence",55.14445,-132.0576,NA,"United States","","M","Copper","","","Unknown","","N","Occurrence","Chalcopyrite, Tetrahedrite","Pyrite, Quartz","","","","Limestone",""
"50","Haida Copper Co.",55.60529,-132.49209,NA,"United States","","M","Copper","","Gold, Silver, Molybdenum","Unknown","","N","Occurrence","Chalcopyrite, Gold, Magnetite, Molybdenite, Silver","","","Gopher, Mammoth, Hyda","","Greenstone",""
"51","Haida Copper Co.",55.60529,-132.49209,NA,"United States","","M","Iron","","Gold, Silver, Molybdenum","Unknown","","N","Occurrence","Chalcopyrite, Gold, Magnetite, Molybdenite, Silver","","","Gopher, Mammoth, Hyda","","Greenstone",""
"52","Hope Prospect",55.16223,-132.38234,NA,"United States","","M","Lead","","Silver","Unknown","Replacement","N","Occurrence","Galena, Sphalerite","Epidote, Garnet","","","","Schist",""
"53","Anderson Claim",55.26501,-132.24623,NA,"United States","","M","Copper","","","Unknown","","N","Occurrence","","","","","","",""
"54","Amazon Prospect",55.14362,-132.05566,NA,"United States","","M","Gold","","","Unknown","","N","Occurrence","","","Underground","","Vein Follows Bedding","Calc-Silicate Schist",""
"55","Alexander Prospect",55.62335,-132.02262,NA,"United States","","M","Gold","","","Unknown","","N","Occurrence","","","Underground","Alexandria","","Greenstone",""
"56","Alaska Tidewater Co.",55.08305,-132.63373,NA,"United States","","M","Copper","","","Unknown","","N","Occurrence","","","","Claims: Florence, Teresa","","",""
"57","Unnamed Occurrence",55.99555,-133.45186,NA,"United States","","M","Lead","","","Unknown","","N","Occurrence","Galena","","","","Vein Follows Contact","Clastic Sedimentary Rock","Diorite"
"58","Kid Claims",55.16362,-132.13067,NA,"United States","","M","Gold","","","Unknown","","N","Occurrence","Gold","Pyrite","","Tom Boy","","Limestone",""
"59","Unnamed Occurrence",55.35527,-133.61016,NA,"United States","","M","Gold","Zinc, Lead","","Unknown","","N","Occurrence","Galena, Gold, Sphalerite","Pyrite","","","","Schist",""
"60","Unnamed Occurrence",55.08862,-132.49206,NA,"United States","","M","Copper","","","Unknown","","N","Occurrence","Bornite, Chalcopyrite","Pyrite","","","","Greenschist",""
"61","Unnamed Occurrence",55.61084,-132.61153,NA,"United States","","M","Copper","","","Unknown","","N","Occurrence","Chalcopyrite","Pyrite","","","","Argillite",""
"62","Bertha Claim",55.2914,-132.39207,NA,"United States","","M","Copper","","","Unknown","","N","Occurrence","Chalcopyrite, Pyrrhotite","","","Hecla Claim, Red Rose Claim","","",""
"63","Corbin Mine",55.2289,-132.6518,NA,"United States","","M","Copper","Gold, Silver","Zinc","Unknown","","S","Past Producer","Chalcopyrite","Calcite, Quartz","Surface/Underground","Alaska Metals Co., Corwin","","Greenstone","Diabase"
"64","Coronation Island Mining Co.",55.9136,-134.33244,NA,"United States","","M","Lead","Zinc","","Unknown","","S","Past Producer","Galena, Smithsonite, Sphalerite, Tetrahedrite","Clay, Limonite","Underground","","","Limestone","Diorite"
"65","Unnamed Prospect",55.08861,-132.69485,NA,"United States","","M","Gold","","","Unknown","","S","Past Producer","","","","","","",""
"66","Lucky Nell Mining Co.",55.51223,-132.82125,NA,"United States","","M","Gold","Silver","Copper, Lead, Zinc","Unknown","","S","Past Producer","Chalcopyrite, Galena, Sphalerite","Pyrite","Surface/Underground","Claims: Commander, Flora, Nellie, President, Red Jacket","","Diorite","Diorite"
"67","Chicago Kid Claim",55.1464,-132.05205,NA,"United States","","M","Gold","","","Unknown","","N","Occurrence","Tetrahedrite","Pyrite","","","","Limestone",""
"68","Clipper Prospect",55.52195,-132.6657,NA,"United States","","M","Gold","","","Unknown","","N","Occurrence","","","","","Vein Follows Dike","Diabase","Granite"
"69","Anderson Prospect",55.3414,-132.37957,NA,"United States","","M","Copper","","","Unknown","","N","Occurrence","Chalcopyrite","","","","","Greenschist",""
"70","Earl No. 1 Occurrence",55.25112,-132.48096,NA,"United States","","M","Gold","","","Unknown","","N","Occurrence","","","","","","Schist",""
"71","Skookum Prospect",55.52751,-132.34763,NA,"United States","","M","Gold","","Copper","Unknown","","N","Occurrence","Chalcopyrite","","","Elm City","Both Sides Of Ore Body Are Bounded By Faults","Diorite","Diorite"
"72","Unnamed Occurrence",55.51084,-132.42819,NA,"United States","","M","Iron","","","Unknown","","N","Occurrence","Magnetite","","","","","Argillite",""
"73","Unnamed Prospect",55.62751,-132.38514,NA,"United States","","M","Copper","Gold","","Unknown","","N","Occurrence","","","","","","",""
"74","Copper Queen Prospect",55.53306,-132.37541,NA,"United States","","M","Copper","","","Unknown","Contact Metamorphic","N","Occurrence","Chalcopyrite, Magnetite","Calcite, Chlorite, Epidote, Pyrite","Surface/Underground","Kasaan Bay Mining Company","","Greenstone","Syenite"
"75","Copper Queen Prospect",55.53306,-132.37541,NA,"United States","","M","Iron","","","Unknown","Contact Metamorphic","N","Occurrence","Chalcopyrite, Magnetite","Calcite, Chlorite, Epidote, Pyrite","Surface/Underground","Kasaan Bay Mining Company","","Greenstone","Syenite"
"76","Juneau Claims",55.55251,-132.67959,NA,"United States","","M","Gold","","","Unknown","","N","Occurrence","","","","","","Granite","Granite"
"77","Gould Prospect",55.00111,-132.76985,NA,"United States","","M","Copper","","","Unknown","","N","Occurrence","Chalcopyrite, Pyrrhotite","Pyrite","","","Mineralization Along Contact","Schist","Granite"
"78","Cymru Mine",55.1364,-132.19984,NA,"United States","","M","Copper","Gold","","Unknown","","S","Past Producer","Chalcopyrite","Calcite, Pyrite, Quartz","Surface/Underground","Cymra, Cimru, Excelsior, Vesta","","Limestone",""
"79","Cymru Mine",55.1364,-132.19984,NA,"United States","","M","Silver","Gold","","Unknown","","S","Past Producer","Chalcopyrite","Calcite, Pyrite, Quartz","Surface/Underground","Cymra, Cimru, Excelsior, Vesta","","Limestone",""
"80","Big Five",55.65251,-132.41431,NA,"United States","","M","Copper","Iron","","Unknown","","N","Occurrence","Chalcopyrite, Magnetite, Pyrrhotite","Epidote, Garnet, Pyrite","Underground","","","Limestone","Diorite"
"81","Copper Mountain Mine",55.23167,-132.61291,NA,"United States","","M","Copper","Silver, Gold","","Unknown","","S","Past Producer","Bornite, Chalcopyrite, Copper","Epidote, Garnet, Magnetite, Scapolite","Surface/Underground","Oregon, Iron Crown, Alaska Consolidated Copper Co., Coppermount, Claims: Indiana, New York","","Limestone","Diorite"
"82","Blue Jay Mine",55.66085,-132.01291,NA,"United States","","M","Gold","","","Unknown","","S","Past Producer","","","","Libe, Bert Lide","","",""
"83","Croesus Prospect",55.14917,-132.18011,NA,"United States","","M","Copper","Gold","","Unknown","","N","Occurrence","Chalcopyrite, Gold","Epidote, Hematite, Magnetite","Surface/Underground","San Juan","","Greenschist",""
"84","Kio Claims",55.1664,-132.13984,NA,"United States","","M","Copper","Gold","Zinc, Lead","Unknown","","N","Occurrence","Chalcopyrite, Galena, Sphalerite","","","Fawn","","Greenschist",""
"85","Grindall Mining and Smelting Co.",55.52334,-132.32541,NA,"United States","","M","Copper","","Molybdenum","Unknown","","S","Past Producer","Chalcopyrite, Magnetite, Molybdenite","Epidote, Garnet","Surface/Underground","Claims: Peacock, Tacoma","","","Basalt"
"86","Paris Prospect",55.21917,-132.60318,NA,"United States","","M","Gold","Copper","","Unknown","","N","Occurrence","","","Underground","","","Quartzite",""
"87","Oregon Claim",55.16834,-132.14734,NA,"United States","","M","Copper","Gold","Zinc, Silver","Unknown","","N","Occurrence","Chalcopyrite, Sphalerite","","","Claim: Maggie May","Vein Defines Contact Between Limestone And Schist","Limestone",""
"88","O.K. Occurrence",55.1989,-132.04956,NA,"United States","","M","Copper","Zinc, Gold","Lead, Silver","Unknown","","N","Occurrence","Galena, Sphalerite","","","","Vein Is At Contact Between Schist And Limestone","Schist",""
"89","Navaho Prospect",55.10945,-132.15956,NA,"United States","","M","Gold","","Copper","Unknown","","N","Occurrence","Chalcopyrite","Pyrite","","Claim: Hope","","Schist","Granite"
"90","Nancy Claim",55.35111,-132.83375,NA,"United States","","M","Copper","","","Unknown","","N","Occurrence","Chalcopyrite","","","","","Greenstone","Argillite"
"91","Mount Andrew Mine",55.51501,-132.30458,NA,"United States","","M","Copper","Gold, Silver","Iron","Unknown","Contact Metasomatic","S","Past Producer","Chalcopyrite, Magnetite","","Surface/Underground","","","Greenstone","Diabase"
"92","Iron Cap Prospect",55.64834,-132.39209,NA,"United States","","M","Copper","Iron","Gold, Silver","Unknown","Replacement","N","Occurrence","Bornite, Chalcopyrite, Gold, Magnetite","Calcite, Epidote, Garnet, Quartz","","Iron Crown","Mineralization At Contact Of Intrusive And Metamorphic Rocks","Greenstone",""
"93","Gervis Prospect",55.51779,-132.82264,NA,"United States","","M","Gold","","","Unknown","","N","Occurrence","Gold","","","","","",""
"94","Frisco Claim",55.16112,-132.13484,NA,"United States","","M","Gold","","","Unknown","","N","Occurrence","","","","Tomboy Group","","Schist",""
"95","Friendship Lode",55.21723,-132.31568,NA,"United States","","M","Copper","","Gold","Unknown","","N","Occurrence","Bornite, Chalcopyrite","","","","Ore Body Occupies Fault Zone","Marble",""
"96","Equator Prospect",55.2214,-132.04317,NA,"United States","","M","Gold","","Copper","Unknown","","N","Occurrence","Chalcopyrite","","Underground","","","Limestone",""
"97","Houghton Prospect",55.26223,-132.62541,NA,"United States","","M","Copper","Iron","","Unknown","","N","Occurrence","Chalcopyrite, Copper, Magnetite, Pyrrhotite","Epidote, Garnet","","Cuprite Copper Company","Ore Body Is In Contact Zone","Limestone","Diorite"
"98","Copper Claim",55.52195,-132.67959,NA,"United States","","M","Gold","","","Unknown","","N","Occurrence","Gold","","","","","Granite","Granite"
"99","Cook Claim",55.14945,-132.08484,NA,"United States","","M","Gold","","","Unknown","","N","Occurrence","Gold","","","","","",""
"100","Cachelot Occurrence",55.4678,-132.15735,NA,"United States","","M","Copper","","Silver, Gold","Unknown","","N","Occurrence","Chalcopyrite","","","","","Diorite","Diorite"
"101","Burke and Lange Occurrence",55.48862,-132.6532,NA,"United States","","M","Gold","","","Unknown","","N","Occurrence","","","","Burked Lang","Vein Parallels Strike Of Enclosing Tuff","Greenstone",""
"102","Bruce Prospect",55.23723,-132.60179,NA,"United States","","M","Copper","","","Unknown","","N","Occurrence","","","","","","",""
"103","Beaver Claim",55.29417,-132.6018,NA,"United States","","M","Copper","","","Unknown","Unknown","N","Occurrence","","","","","","",""
"104","Beaver Claim",55.29417,-132.6018,NA,"United States","","M","Gold","","","Unknown","Unknown","N","Occurrence","","","","","","",""
"105","Shelton Prospect",55.43029,-132.65598,NA,"United States","","M","Copper","Gold, Silver","","Unknown","","N","Occurrence","Chalcopyrite, Malachite","Calcite, Pyrite, Quartz","Surface/Underground","Claims: Lavina, Rosalie, Roman","","Limestone",""
"106","Silver Star Prospect",55.03028,-133.08236,NA,"United States","","M","Gold","Zinc","Copper, Lead","Unknown","","N","Occurrence","Chalcopyrite, Galena, Sphalerite","","","","Veins Follow Bedding","Limestone",""
"107","Silver Star Prospect",55.03028,-133.08236,NA,"United States","","M","Silver","Zinc","Copper, Lead","Unknown","","N","Occurrence","Chalcopyrite, Galena, Sphalerite","","","","Veins Follow Bedding","Limestone",""
"108","Russian Bear Prospect",55.22751,-132.59623,NA,"United States","","M","Copper","","","Unknown","Contact Metasomatic","N","Occurrence","","","","Texas Prospect","","","Diorite"
"109","Magnetite Ore Body, Rush and Brown Mine",55.62473,-132.58792,NA,"United States","","M","Copper","Gold, Silver","Iron","Unknown","Replacement","S","Past Producer","Chalcopyrite, Magnetite","Calcite, Epidote, Garnet, Pyrite","Surface/Underground","Alaska Consolidated Copper Co, Alaska Gold and Metals Co., Iron Cliff","Mineralization Follows Tuff-Pluton Contact","Greenstone",""
"110","Shear Zone Ore Body, Rush and Brown Mine",55.62473,-132.58792,NA,"United States","","M","Copper","Gold, Silver","","Unknown","","S","Past Producer","Chalcopyrite, Pyrrhotite","Calcite, Quartz","Surface/Underground","Alaska Consolidated Copper Co, Alaska Gold and Metal Co., Iron Cliff","","Greenstone",""
"111","Rich Hill Mine",55.51917,-132.3393,NA,"United States","","M","Copper","","Iron, Molybdenum","Unknown","","S","Past Producer","Chalcopyrite, Molybdenite","Epidote, Garnet, Pyrite","Surface/Underground","Ouray Prospect","Ore Bodies Are In Contact Zones Between Dikes And Counyry Rocks","Greenstone","Diorite"
"112","Rex Claim",55.23862,-132.53651,NA,"United States","","M","Copper","Iron","","Unknown","","N","Occurrence","Chalcopyrite, Magnetite","Diopside, Epidote, Garnet","","","","Limestone","Diorite"
"113","Reed Occurrence",55.58029,-132.47959,NA,"United States","","M","Copper","","","Unknown","","N","Occurrence","","","","","","",""
"114","Poorman Prospect",55.56084,-132.43791,NA,"United States","","M","Iron","Copper, Gold","Silver","Unknown","Replacement","N","Occurrence","Chalcopyrite, Magnetite","Calcite, Chlorite, Epidote, Fluorite, Limonite, Malachite","Surface/Underground","","Diabase Forms Footwall Of Deposit","Greenstone",""
"115","Niblack Copper Co.",55.06667,-132.14844,NA,"United States","","M","Copper","Gold, Silver","Zinc","Unknown","Replacement","S","Past Producer","Chalcopyrite, Sphalerite","","Underground","","","Greenschist","Diabase"
"116","Mt. Jumbo Prospect",55.26084,-132.63374,NA,"United States","","M","Copper","Silver","Zinc","Unknown","","N","Occurrence","Chalcopyrite, Goethite, Marcasite, Pyrrhotite","Garnet","","","","Carbonate","Diorite"
"117","Wallace Claim",55.64557,-132.37264,NA,"United States","","M","Copper","","","Unknown","","N","Occurrence","Chalcopyrite","Epidote, Garnet, Magnetite","","","","",""
"118","Uncle Sam Mine",55.53029,-132.36013,NA,"United States","","M","Copper","Gold","","Unknown","","S","Past Producer","Chalcopyrite","Calcite, Epidote, Garnet, Magnetite","Surface/Underground","","","Greenstone","Syenite"
"119","Triangle No. 2 Claim",55.14029,-132.04566,NA,"United States","","M","Gold","","","Unknown","","N","Occurrence","","Calcite, Quartz","","","","Limestone",""
"120","Tolstoi Occurrence",55.64002,-132.37403,NA,"United States","","M","Copper","","Iron","Unknown","","N","Occurrence","Chalcopyrite, Magnetite","","","","","",""
"121","Sunny Day Prospect",55.5539,-132.39069,NA,"United States","","M","Copper","Gold, Silver","","Unknown","","N","Occurrence","Chalcopyrite","","","","Vein Follows Vertical Dike Which Strikes N 65 E.","Greenstone",""
"122","Summit Prospect",55.51223,-132.80875,NA,"United States","","M","Gold","","","Unknown","","N","Occurrence","Chalcopyrite, Galena","Pyrite","","","","Plutonic Rock","Plutonic Rock"
"123","Summit Prospect",55.51223,-132.80875,NA,"United States","","M","Silver","","","Unknown","","N","Occurrence","Chalcopyrite, Galena","Pyrite","","","","Plutonic Rock","Plutonic Rock"
"124","Sultana Prospect",55.28584,-132.56569,NA,"United States","","M","Copper","","Nickel, Cobalt","Unknown","","N","Occurrence","Chalcopyrite, Pyrrhotite","Calcite, Epidote, Garnet, Magnetite","","Claims:Index, Vulcan","Limestone Forms Hanging Wall While Pluton 1s Foot Wall.","Limestone","Granite"
"125","Stevenstown Mine",55.51362,-132.29208,NA,"United States","","M","Copper","Gold, Silver","Iron","Unknown","Contact Metasomatic","S","Past Producer","Chalcopyrite, Magnetite","Calcite, Epidote, Garnet","Surface/Underground","","Limestone Is Hanging Wall, Syenite Is Footwall","Limestone","Syenite,Dacite"
"126","Stevens Occurrence",55.63584,-132.57403,NA,"United States","","M","Copper","","","Unknown","","N","Occurrence","","","","","","",""
"127","Stevens Occurrence",55.61917,-132.54487,NA,"United States","","M","Copper","","","Unknown","","N","Occurrence","Bornite","","","","","Diorite",""
"128","Standby Occurrence",55.14584,-132.05677,NA,"United States","","M","Gold","","","Unknown","","N","Occurrence","","Pyrite","","","","Limestone",""
"129","Snowdrift Prospect",55.48029,-132.70737,NA,"United States","","M","Gold","","","Unknown","","N","Occurrence","","","","","","",""
"130","Shellhouse Prospect",55.05666,-133.07402,NA,"United States","","M","Copper","","","Unknown","","N","Occurrence","Chalcopyrite","Calcite, Pyrrhotite, Quartz","","","","Limestone",""
"131","Saxe Prospect",55.49139,-132.99349,NA,"United States","","M","Gold","Lead","Copper, Zinc","Unknown","","N","Occurrence","Chalcopyrite, Galena, Pyrite, Sphalerite","","","","","Andesite","Andesite"
"132","Saxe Prospect",55.49139,-132.99349,NA,"United States","","M","Silver","Lead","Copper, Zinc","Unknown","","N","Occurrence","Chalcopyrite, Galena, Pyrite, Sphalerite","","","","","Andesite","Andesite"
"133","Salmon Claim",55.13501,-132.05566,NA,"United States","","M","Gold","","Copper, Lead","Unknown","","N","Occurrence","Chalcopyrite, Galena","Pyrite","","","","Limestone",""
"134","Lucky Boy Prospect",55.15862,-132.23734,NA,"United States","","M","Lead","","Gold, Copper, Silver","Unknown","","N","Occurrence","Chalcopyrite, Galena, Pyrite, Sphalerite","Calcite, Quartz","Surface/Underground","Claims: Complex, Frisco, Idaho, Lady of the Lake, Minnetonka, Oregon, Dragon, Portland, Seattle","","Schist","Granite"
"135","Harris Creek Mine",55.46917,-132.70598,NA,"United States","","M","Gold","","Lead","Unknown","","S","Past Producer","Galena","","Surface/Underground","Julia, Dunton, Kasaan Gold, Rogers","","Slate","Mafic Intrusive Rock"
"136","It Mining Co.",55.57751,-132.46709,NA,"United States","","M","Copper","Gold, Silver","Molybdenum","Unknown","Contact Metasomatic","S","Past Producer","Chalcopyrite, Molybdenite, Pyrite","Calcite, Epidote, Garnet, Hematite, Magnetite","","","Limestone Is Hanging Wall And Diorite Is Footwall Of Deposit","Limestone","Siltstone"
"137","Jumbo Mine",55.25251,-132.62124,NA,"United States","","M","Gold","","Iron, Zinc, Molybdenum","Unknown","Contact Metasomatic","S","Past Producer","Chalcopyrite, Magnetite, Specularite, Sphalerite","Epidote, Garnet, Scapolite, Wollastonite","Surface/Underground","","Ore Body At Contact","Limestone",""
"138","Jumbo Mine",55.25251,-132.62124,NA,"United States","","M","Silver","","Iron, Zinc, Molybdenum","Unknown","Contact Metasomatic","S","Past Producer","Chalcopyrite, Magnetite, Specularite, Sphalerite","Epidote, Garnet, Scapolite, Wollastonite","Surface/Underground","","Ore Body At Contact","Limestone",""
"139","Jumbo Mine",55.25251,-132.62124,NA,"United States","","M","Copper","","Iron, Zinc, Molybdenum","Unknown","Contact Metasomatic","S","Past Producer","Chalcopyrite, Magnetite, Specularite, Sphalerite","Epidote, Garnet, Scapolite, Wollastonite","Surface/Underground","","Ore Body At Contact","Limestone",""
"140","Unnamed Occurrence",55.30806,-132.57958,NA,"United States","","M","Lead","","","Unknown","","N","Occurrence","Galena, Sphalerite","","","","","Limestone",""
"141","Dawson Mine",55.46084,-132.72681,NA,"United States","","M","Gold","","Copper, Zinc, Lead","Unknown","","S","Past Producer","Chalcopyrite, Galena, Pyrite, Sphalerite","","","George, Humboldt Vein, Free Gold Vein","Ore Bodies Follow Dikes, Which In Turn Follow The Bedding And Foliation Of The Slate","Slate","Diorite"
"142","Campbell Prospect",55.26362,-132.64486,NA,"United States","","M","Copper","","Zinc, Silver, Gold, Lead","Unknown","","N","Occurrence","Chalcopyrite, Pyrrhotite","","Underground","","","Marble","Diorite"
"143","Gonnanson Occurrence",55.25251,-132.62958,NA,"United States","","M","Copper","Iron","","Unknown","","N","Occurrence","Chalcopyrite, Magnetite","","","","","",""
"144","Miller Claim",55.05389,-133.07124,NA,"United States","","M","Copper","","","Unknown","","N","Occurrence","Chalcopyrite","Calcite, Pyrrhotite, Quartz","","","","Limestone",""
"145","Washington Claim",55.17084,-132.1465,NA,"United States","","M","Gold","","Copper, Zinc, Silver","Unknown","","N","Occurrence","","","","Claim: Maggie May","","Limestone",""
"146","Wednesday Occurrence",55.13584,-132.0976,NA,"United States","","M","Gold","","","Unknown","","N","Occurrence","","Calcite","","","","Limestone",""
"147","Welcome Claim",55.1414,-132.04621,NA,"United States","","M","Gold","","","Unknown","","N","Occurrence","","Pyrite","","","","Limestone",""
"148","Wellfleet Claim",55.15056,-132.06899,NA,"United States","","M","Gold","","","Unknown","","N","Occurrence","","","","","","Schist",""
"149","Westcott Claim",55.07001,-132.15177,NA,"United States","","M","Copper","","","Unknown","","N","Occurrence","Chalcopyrite, Pyrite","Quartz","","","","Schist",""
"150","Unnamed Occurrence",55.45665,-133.81573,NA,"United States","","M","Copper","","","Unknown","","N","Occurrence","Chalcopyrite","","","","","Marble",""
"151","Unnamed Occurrence",55.46362,-132.81153,NA,"United States","","M","Copper","","","Unknown","","N","Occurrence","Chalcopyrite, Pyrite","","","","","Greenstone",""
"152","Unnamed Occurrences",55.42611,-133.25738,NA,"United States","","M","Copper","","","Unknown","","N","Occurrence","Chalcopyrite, Pyrite","","","","","Diorite",""
"153","Unnamed Occurrence",55.3775,-132.87125,NA,"United States","","M","Copper","","","Unknown","","N","Occurrence","Pyrite","","","","","Greenschist",""
"154","Unnamed Occurrence",55.40528,-133.30182,NA,"United States","","M","Copper","","","Unknown","","N","Occurrence","Chalcopyrite, Pyrite","","","","","Diorite",""
"155","Unnamed Occurrence",55.37194,-132.80737,NA,"United States","","M","Copper","","","Unknown","","N","Occurrence","Chalcopyrite, Pyrite","","","","","Greenschist",""
"156","Unnamed Occurrences",55.26638,-133.63516,NA,"United States","","M","Copper","","","Unknown","","N","Occurrence","Chalcopyrite, Pyrite","","","","","Phyllite",""
"157","Unnamed Occurrence",55.30945,-132.69069,NA,"United States","","M","Copper","","","Unknown","","N","Occurrence","Chalcopyrite","","","","","Volcanic Rock (Aphanitic)",""
"158","Unnamed Prospect",55.48584,-132.72959,NA,"United States","","M","Gold","Lead, Zinc, Copper","","Unknown","","N","Occurrence","Chalcopyrite, Galena, Pyrite, Sphalerite","","","","Vein Appears 50 Feet From Contact With Graywalke","Diorite","Diorite"
"159","Unnamed Prospect",55.48584,-132.72959,NA,"United States","","M","Silver","Lead, Zinc, Copper","","Unknown","","N","Occurrence","Chalcopyrite, Galena, Pyrite, Sphalerite","","","","Vein Appears 50 Feet From Contact With Graywalke","Diorite","Diorite"
"160","Unnamed Occurrence",55.31361,-132.78236,NA,"United States","","M","Copper","","","Unknown","","N","Occurrence","Chalcopyrite, Pyrite","","","","","Greenstone",""
"161","Unnamed Occurrences",55.25667,-132.62124,NA,"United States","","M","Copper","Iron","","Unknown","","N","Occurrence","Chalcopyrite, Magnetite","","","","","Marble","Diorite"
"162","Unnamed Occurrence",55.51501,-132.73653,NA,"United States","","M","Copper","Lead","","Unknown","","N","Occurrence","Chalcopyrite, Galena, Pyrrhotite","","","","","Argillite",""
"163","Yellowstone Prospect",55.1025,-133.12263,NA,"United States","","M","Gold","Copper","","Unknown","","N","Occurrence","Chalcopyrite","Calcite, Quartz","","","","",""
"164","Double Anchor",56.06366,-130.25982,NA,"United States","","M","Lead","Copper","","Unknown","","","Prospect","Chalcopyrite, Galena, Pyrite, Sphalerite","Quartz","","Alaska State Mines Extension","","Siltstone",""
"165","Double Anchor",56.06366,-130.25982,NA,"United States","","M","Copper","Copper","","Unknown","","","Prospect","Chalcopyrite, Galena, Pyrite, Sphalerite","Quartz","","Alaska State Mines Extension","","Siltstone",""
"166","Double Anchor",56.06366,-130.25982,NA,"United States","","M","Gold","Copper","","Unknown","","","Prospect","Chalcopyrite, Galena, Pyrite, Sphalerite","Quartz","","Alaska State Mines Extension","","Siltstone",""
"167","Double Anchor",56.06366,-130.25982,NA,"United States","","M","Silver","Copper","","Unknown","","","Prospect","Chalcopyrite, Galena, Pyrite, Sphalerite","Quartz","","Alaska State Mines Extension","","Siltstone",""
"168","Hummel",56.06477,-130.2437,NA,"United States","","M","Copper","","","Unknown","","","Prospect","Chalcopyrite, Galena, Pyrite, Sphalerite, Tetrahedrite","Quartz","","","","Argillite",""
"169","Hummel",56.06477,-130.2437,NA,"United States","","M","Lead","","","Unknown","","","Prospect","Chalcopyrite, Galena, Pyrite, Sphalerite, Tetrahedrite","Quartz","","","","Argillite",""
"170","Hummel",56.06477,-130.2437,NA,"United States","","M","Silver","","","Unknown","","","Prospect","Chalcopyrite, Galena, Pyrite, Sphalerite, Tetrahedrite","Quartz","","","","Argillite",""
"171","Hummel",56.06477,-130.2437,NA,"United States","","M","Gold","","","Unknown","","","Prospect","Chalcopyrite, Galena, Pyrite, Sphalerite, Tetrahedrite","Quartz","","","","Argillite",""
"172","Chickamin",56.07088,-130.2737,NA,"United States","","M","Copper","","","Unknown","","","Prospect","Chalcopyrite, Galena, Pyrite, Pyrrhotite, Tetrahedrite","Quartz","","","","Graywacke",""
"173","Chickamin",56.07088,-130.2737,NA,"United States","","M","Lead","","","Unknown","","","Prospect","Chalcopyrite, Galena, Pyrite, Pyrrhotite, Tetrahedrite","Quartz","","","","Graywacke",""
"174","Cathedral",56.07477,-130.28676,NA,"United States","","M","Silver","","","Unknown","","","Prospect","Chalcopyrite, Galena, Pyrite, Pyrrhotite, Sphalerite","Quartz","","","","Siltstone",""
"175","Cathedral",56.07477,-130.28676,NA,"United States","","M","Gold","","","Unknown","","","Prospect","Chalcopyrite, Galena, Pyrite, Pyrrhotite, Sphalerite","Quartz","","","","Siltstone",""
"176","Cathedral",56.07477,-130.28676,NA,"United States","","M","Copper","","","Unknown","","","Prospect","Chalcopyrite, Galena, Pyrite, Pyrrhotite, Sphalerite","Quartz","","","","Siltstone",""
"177","Cathedral",56.07477,-130.28676,NA,"United States","","M","Lead","","","Unknown","","","Prospect","Chalcopyrite, Galena, Pyrite, Pyrrhotite, Sphalerite","Quartz","","","","Siltstone",""
"178","Marietta",56.07588,-130.25982,NA,"United States","","M","Gold","Zinc, Copper, Lead","","Unknown","","","Past Producer","Electrum, Galena, Gold","Calcite, Quartz","","Solo PecosPecos","","",""
"179","Marietta",56.07588,-130.25982,NA,"United States","","M","Silver","Zinc, Copper, Lead","","Unknown","","","Past Producer","Electrum, Galena, Gold","Calcite, Quartz","","Solo PecosPecos","","",""
"180","Blasher",56.05588,-130.26676,NA,"United States","","M","Lead","","","Unknown","","","Prospect","Chalcopyrite, Galena, Pyrite, Pyrrhotite, Sphalerite","Quartz","","Lone Star Group","","Quartzite",""
"181","Blasher",56.05588,-130.26676,NA,"United States","","M","Copper","","","Unknown","","","Prospect","Chalcopyrite, Galena, Pyrite, Pyrrhotite, Sphalerite","Quartz","","Lone Star Group","","Quartzite",""
"182","Blasher",56.05588,-130.26676,NA,"United States","","M","Gold","","","Unknown","","","Prospect","Chalcopyrite, Galena, Pyrite, Pyrrhotite, Sphalerite","Quartz","","Lone Star Group","","Quartzite",""
"183","Blasher",56.05588,-130.26676,NA,"United States","","M","Silver","","","Unknown","","","Prospect","Chalcopyrite, Galena, Pyrite, Pyrrhotite, Sphalerite","Quartz","","Lone Star Group","","Quartzite",""
"184","Morning",56.05283,-130.26982,NA,"United States","","M","Lead","","","Unknown","","","Prospect","Galena, Pyrite","Quartz","","Lakeside, Lone Star Group","","Diorite","Diorite"
"185","Morning",56.05283,-130.26982,NA,"United States","","M","Silver","","","Unknown","","","Prospect","Galena, Pyrite","Quartz","","Lakeside, Lone Star Group","","Diorite","Diorite"
"186","Lake",56.05671,-130.27565,NA,"United States","","M","Copper","","","Unknown","","","Prospect","Chalcopyrite, Galena, Pyrite","Quartz","","","","Clastic Sedimentary Rock","Diorite"
"187","Lake",56.05671,-130.27565,NA,"United States","","M","Lead","","","Unknown","","","Prospect","Chalcopyrite, Galena, Pyrite","Quartz","","","","Clastic Sedimentary Rock","Diorite"
"188","Hummel Canyon",56.04366,-130.2937,NA,"United States","","M","Silver","","","Unknown","","","Prospect","Chalcopyrite, Galena, Molybdenite, Pyrite, Sphalerite","Quartz","","","","Hornfels",""
"189","Hummel Canyon",56.04366,-130.2937,NA,"United States","","M","Copper","","","Unknown","","","Prospect","Chalcopyrite, Galena, Molybdenite, Pyrite, Sphalerite","Quartz","","","","Hornfels",""
"190","Hummel Canyon",56.04366,-130.2937,NA,"United States","","M","Lead","","","Unknown","","","Prospect","Chalcopyrite, Galena, Molybdenite, Pyrite, Sphalerite","Quartz","","","","Hornfels",""
"191","Marmot, upper basin",56.02588,-130.37065,NA,"United States","","M","Lead","Gold, Zinc","","Unknown","","","Prospect","Chalcopyrite, Galena, Molybdenite, Pyrite","Calcite, Quartz","","","","Hornfels","Andesite"
"192","Marmot, upper basin",56.02588,-130.37065,NA,"United States","","M","Copper","Gold, Zinc","","Unknown","","","Prospect","Chalcopyrite, Galena, Molybdenite, Pyrite","Calcite, Quartz","","","","Hornfels","Andesite"
"193","Marmot, upper basin",56.02588,-130.37065,NA,"United States","","M","Silver","Gold, Zinc","","Unknown","","","Prospect","Chalcopyrite, Galena, Molybdenite, Pyrite","Calcite, Quartz","","","","Hornfels","Andesite"
"194","Edelweiss",56.02588,-130.35565,NA,"United States","","M","Silver","","","Unknown","","","Prospect","Galena, Pyrite, Pyrrhotite","Quartz","","Marmot group","","Siltstone","Argillite"
"195","Edelweiss",56.02588,-130.35565,NA,"United States","","M","Gold","","","Unknown","","","Prospect","Galena, Pyrite, Pyrrhotite","Quartz","","Marmot group","","Siltstone","Argillite"
"196","Edelweiss",56.02588,-130.35565,NA,"United States","","M","Lead","","","Unknown","","","Prospect","Galena, Pyrite, Pyrrhotite","Quartz","","Marmot group","","Siltstone","Argillite"
"197","Galena",56.03088,-130.3337,NA,"United States","","M","Silver","","","Unknown","","","Prospect","Chalcopyrite, Galena, Molybdenite, Pyrite, Sphalerite","Calcite, Quartz","","Marmot group","","Hornfels",""
"198","Galena",56.03088,-130.3337,NA,"United States","","M","Copper","","","Unknown","","","Prospect","Chalcopyrite, Galena, Molybdenite, Pyrite, Sphalerite","Calcite, Quartz","","Marmot group","","Hornfels",""
"199","Galena",56.03088,-130.3337,NA,"United States","","M","Lead","","","Unknown","","","Prospect","Chalcopyrite, Galena, Molybdenite, Pyrite, Sphalerite","Calcite, Quartz","","Marmot group","","Hornfels",""
"200","Unnamed Occurrence",60.28066,-148.10225,NA,"United States","","M","Gold","","","Unknown","Vein","N","Occurrence","Gold","Quartz","","","","Sandstone",""
"201","Jumbo",56.01866,-130.35176,NA,"United States","","M","Silver","Zinc, Gold, Copper","","Unknown","","","Prospect","Chalcopyrite, Galena, Molybdenite, Pyrite, Sphalerite","Quartz","","Marmot, lower basin","","Siltstone","Argillite"
"202","Jumbo",56.01866,-130.35176,NA,"United States","","M","Lead","Zinc, Gold, Copper","","Unknown","","","Prospect","Chalcopyrite, Galena, Molybdenite, Pyrite, Sphalerite","Quartz","","Marmot, lower basin","","Siltstone","Argillite"
"203","Dugas",56.06283,-130.27287,NA,"United States","","M","Lead","","","Unknown","","","Prospect","Chalcopyrite, Galena, Malachite, Pyrite, Sphalerite","Quartz","","Stampede, Blasher Extension","","Siltstone","Granite"
"204","Dugas",56.06283,-130.27287,NA,"United States","","M","Silver","","","Unknown","","","Prospect","Chalcopyrite, Galena, Malachite, Pyrite, Sphalerite","Quartz","","Stampede, Blasher Extension","","Siltstone","Granite"
"205","Dugas",56.06283,-130.27287,NA,"United States","","M","Gold","","","Unknown","","","Prospect","Chalcopyrite, Galena, Malachite, Pyrite, Sphalerite","Quartz","","Stampede, Blasher Extension","","Siltstone","Granite"
"206","Dugas",56.06283,-130.27287,NA,"United States","","M","Copper","","","Unknown","","","Prospect","Chalcopyrite, Galena, Malachite, Pyrite, Sphalerite","Quartz","","Stampede, Blasher Extension","","Siltstone","Granite"
"207","Banded Mountain",56.04144,-130.40037,NA,"United States","","M","Gold","","","Unknown","","N","Occurrence","","","","","","Siltstone","Gabbro"
"208","Banded Mountain",56.04144,-130.40037,NA,"United States","","M","Silver","","","Unknown","","N","Occurrence","","","","","","Siltstone","Gabbro"
"209","Banded Mountain",56.04144,-130.40037,NA,"United States","","M","Lead","","","Unknown","","N","Occurrence","","","","","","Siltstone","Gabbro"
"210","Banded Mountain",56.04144,-130.40037,NA,"United States","","M","Copper","","","Unknown","","N","Occurrence","","","","","","Siltstone","Gabbro"
"211","Unnamed",56.04671,-130.39482,NA,"United States","","M","Copper","Silver, Gold","","Unknown","","","Occurrence","Chalcopyrite, Pyrrhotite","Quartz","","","","Siltstone",""
"212","Boundary",56.32977,-130.78179,NA,"United States","","M","Gold","","","Unknown","","","Occurrence","","","","","","",""
"213","Boundary",56.32977,-130.78179,NA,"United States","","M","Silver","","","Unknown","","","Occurrence","","","","","","",""
"214","Glacier",56.03977,-130.40148,NA,"United States","","M","Lead","","","Unknown","","N","Occurrence","Chalcopyrite, Galena, Molybdenite","Pyrite, Quartz","","Banded Mountain","","Siltstone","Lamprophyre"
"215","Glacier",56.03977,-130.40148,NA,"United States","","M","Copper","","","Unknown","","N","Occurrence","Chalcopyrite, Galena, Molybdenite","Pyrite, Quartz","","Banded Mountain","","Siltstone","Lamprophyre"
"216","Glacier",56.03977,-130.40148,NA,"United States","","M","Silver","","","Unknown","","N","Occurrence","Chalcopyrite, Galena, Molybdenite","Pyrite, Quartz","","Banded Mountain","","Siltstone","Lamprophyre"
"217","Glacier",56.03977,-130.40148,NA,"United States","","M","Gold","","","Unknown","","N","Occurrence","Chalcopyrite, Galena, Molybdenite","Pyrite, Quartz","","Banded Mountain","","Siltstone","Lamprophyre"
"218","Goat",56.01671,-130.4187,NA,"United States","","M","Silver","","","Unknown","","","Prospect","Chalcopyrite, Pyrrhotite","Calcite, Quartz","","Cub","","Siltstone","Argillite"
"219","Goat",56.01671,-130.4187,NA,"United States","","M","Gold","","","Unknown","","","Prospect","Chalcopyrite, Pyrrhotite","Calcite, Quartz","","Cub","","Siltstone","Argillite"
"220","Goat",56.01671,-130.4187,NA,"United States","","M","Copper","","","Unknown","","","Prospect","Chalcopyrite, Pyrrhotite","Calcite, Quartz","","Cub","","Siltstone","Argillite"
"221","Waco",56.30976,-131.61181,NA,"United States","","M","Silver","","","Unknown","","","Occurrence","","","","","","",""
"222","Waco",56.30976,-131.61181,NA,"United States","","M","Gold","","","Unknown","","","Occurrence","","","","","","",""
"223","Waco",56.30976,-131.61181,NA,"United States","","M","Copper","","","Unknown","","","Occurrence","","","","","","",""
"224","Copper King",56.46975,-131.98183,NA,"United States","","M","Silver","","","Unknown","","","Prospect","","","","","","",""
"225","Copper King",56.46975,-131.98183,NA,"United States","","M","Gold","","","Unknown","","","Prospect","","","","","","",""
"226","Copper King",56.46975,-131.98183,NA,"United States","","M","Copper","","","Unknown","","","Prospect","","","","","","",""
"227","Copper King",56.46975,-131.98183,NA,"United States","","M","Lead","","","Unknown","","","Prospect","","","","","","",""
"228","Spud",56.47975,-131.98183,NA,"United States","","M","Silver","","","Unknown","","","Prospect","","Calcite","","","","Marble",""
"229","Spud",56.47975,-131.98183,NA,"United States","","M","Lead","","","Unknown","","","Prospect","","Calcite","","","","Marble",""
"230","Craig",56.46976,-131.27181,NA,"United States","","M","Copper","","","Unknown","","","Occurrence","Chalcopyrite, Magnetite, Pyrite, Pyrrhotite","","","","","Metasedimentary Rock",""
"231","Unuk River",56.32977,-130.77179,NA,"United States","","M","Copper","","","Unknown","","","Occurrence","Chalcopyrite, Pyrite, Pyrrhotite","Quartz","","","","",""
"232","Chamberlain Bay",60.87041,-147.19867,NA,"United States","","M","Copper","","","Unknown","Vein","N","Occurrence","Chalcopyrite","","","","","Basalt",""
"233","Cantu",56.07588,-130.06564,NA,"United States","","M","Copper","Barium-Barite","","Unknown","","","Past Producer","Chalcopyrite, Galena, Pyrite, Sphalerite, Tetrahedrite","Barite, Calcite, Quartz","","","","Diorite","Diorite"
"234","Cantu",56.07588,-130.06564,NA,"United States","","M","Silver","Barium-Barite","","Unknown","","","Past Producer","Chalcopyrite, Galena, Pyrite, Sphalerite, Tetrahedrite","Barite, Calcite, Quartz","","","","Diorite","Diorite"
"235","Cantu",56.07588,-130.06564,NA,"United States","","M","Gold","Barium-Barite","","Unknown","","","Past Producer","Chalcopyrite, Galena, Pyrite, Sphalerite, Tetrahedrite","Barite, Calcite, Quartz","","","","Diorite","Diorite"
"236","Cantu",56.07588,-130.06564,NA,"United States","","M","Lead","Barium-Barite","","Unknown","","","Past Producer","Chalcopyrite, Galena, Pyrite, Sphalerite, Tetrahedrite","Barite, Calcite, Quartz","","","","Diorite","Diorite"
"237","Gold Cliff Premier",56.05283,-130.04564,NA,"United States","","M","Silver","","","Unknown","","","Prospect","Chalcopyrite, Galena, Pyrite, Pyrrhotite, Sphalerite, Tetrahedrite","Calcite, Quartz","","","","Slate","Diorite"
"238","Gold Cliff Premier",56.05283,-130.04564,NA,"United States","","M","Gold","","","Unknown","","","Prospect","Chalcopyrite, Galena, Pyrite, Pyrrhotite, Sphalerite, Tetrahedrite","Calcite, Quartz","","","","Slate","Diorite"
"239","Gold Cliff Premier",56.05283,-130.04564,NA,"United States","","M","Copper","","","Unknown","","","Prospect","Chalcopyrite, Galena, Pyrite, Pyrrhotite, Sphalerite, Tetrahedrite","Calcite, Quartz","","","","Slate","Diorite"
"240","Gold Cliff Premier",56.05283,-130.04564,NA,"United States","","M","Lead","","","Unknown","","","Prospect","Chalcopyrite, Galena, Pyrite, Pyrrhotite, Sphalerite, Tetrahedrite","Calcite, Quartz","","","","Slate","Diorite"
"241","Heckla",56.01171,-130.33065,NA,"United States","","M","Silver","Gold","","Unknown","","","Prospect","Anglesite, Chalcopyrite, Covellite, Digenite, Galena, Malachite, Molybdenite, Pyrite, Pyrrhotite, Sphalerite","Quartz","","Greenpoint","","Metasedimentary Rock","Quartz Monzonite"
"242","Heckla",56.01171,-130.33065,NA,"United States","","M","Lead","Gold","","Unknown","","","Prospect","Anglesite, Chalcopyrite, Covellite, Digenite, Galena, Malachite, Molybdenite, Pyrite, Pyrrhotite, Sphalerite","Quartz","","Greenpoint","","Metasedimentary Rock","Quartz Monzonite"
"243","Heckla",56.01171,-130.33065,NA,"United States","","M","Copper","Gold","","Unknown","","","Prospect","Anglesite, Chalcopyrite, Covellite, Digenite, Galena, Malachite, Molybdenite, Pyrite, Pyrrhotite, Sphalerite","Quartz","","Greenpoint","","Metasedimentary Rock","Quartz Monzonite"
"244","Ninety-six",56.04283,-130.06869,NA,"United States","","M","Copper","","","Unknown","","","Prospect","Chalcopyrite, Galena, Sphalerite, Tetrahedrite","Quartz","","Gold Eagle","","Diorite","Diorite"
"245","Ninety-six",56.04283,-130.06869,NA,"United States","","M","Lead","","","Unknown","","","Prospect","Chalcopyrite, Galena, Sphalerite, Tetrahedrite","Quartz","","Gold Eagle","","Diorite","Diorite"
"246","Border",56.04588,-130.03786,NA,"United States","","M","Copper","","","Unknown","","","Prospect","Chalcopyrite, Galena, Pyrite, Sphalerite","Calcite, Quartz","","","","Siltstone","Diorite"
"247","Border",56.04588,-130.03786,NA,"United States","","M","Lead","","","Unknown","","","Prospect","Chalcopyrite, Galena, Pyrite, Sphalerite","Calcite, Quartz","","","","Siltstone","Diorite"
"248","Charles",56.05366,-130.06981,NA,"United States","","M","Lead","","","Unknown","","","Occurrence","Chalcopyrite, Galena, Pyrite, Sphalerite","Quartz","","Nelson and Pitcher","","",""
"249","Charles",56.05366,-130.06981,NA,"United States","","M","Silver","","","Unknown","","","Occurrence","Chalcopyrite, Galena, Pyrite, Sphalerite","Quartz","","Nelson and Pitcher","","",""
"250","Charles",56.05366,-130.06981,NA,"United States","","M","Gold","","","Unknown","","","Occurrence","Chalcopyrite, Galena, Pyrite, Sphalerite","Quartz","","Nelson and Pitcher","","",""
"251","Charles",56.05366,-130.06981,NA,"United States","","M","Copper","","","Unknown","","","Occurrence","Chalcopyrite, Galena, Pyrite, Sphalerite","Quartz","","Nelson and Pitcher","","",""
"252","Virginia",56.03977,-130.04369,NA,"United States","","M","Gold","","","Unknown","","","Prospect","Chalcopyrite, Galena, Pyrite, Pyrrhotite, Sphalerite, Tetrahedrite","Calcite, Quartz","","","","Greenstone",""
"253","Virginia",56.03977,-130.04369,NA,"United States","","M","Copper","","","Unknown","","","Prospect","Chalcopyrite, Galena, Pyrite, Pyrrhotite, Sphalerite, Tetrahedrite","Calcite, Quartz","","","","Greenstone",""
"254","Virginia",56.03977,-130.04369,NA,"United States","","M","Lead","","","Unknown","","","Prospect","Chalcopyrite, Galena, Pyrite, Pyrrhotite, Sphalerite, Tetrahedrite","Calcite, Quartz","","","","Greenstone",""
"255","Stoner-Clegg-O'Rourke",56.03171,-130.03481,NA,"United States","","M","Lead","","","Unknown","","","Prospect","Chalcopyrite, Galena, Pyrite, Pyrrhotite, Sphalerite, Tetrahedrite","Calcite","","","","Greenstone",""
"256","Stoner-Clegg-O'Rourke",56.03171,-130.03481,NA,"United States","","M","Copper","","","Unknown","","","Prospect","Chalcopyrite, Galena, Pyrite, Pyrrhotite, Sphalerite, Tetrahedrite","Calcite","","","","Greenstone",""
"257","Stoner",56.03477,-130.03064,NA,"United States","","M","Lead","","","Unknown","","","Prospect","Galena, Pyrite, Pyrrhotite, Sphalerite, Tetrahedrite","Calcite, Quartz","","Stoner Gold and Silver Mining Corporation","","",""
"258","Stoner",56.03477,-130.03064,NA,"United States","","M","Gold","","","Unknown","","","Prospect","Galena, Pyrite, Pyrrhotite, Sphalerite, Tetrahedrite","Calcite, Quartz","","Stoner Gold and Silver Mining Corporation","","",""
"259","Stoner",56.03477,-130.03064,NA,"United States","","M","Silver","","","Unknown","","","Prospect","Galena, Pyrite, Pyrrhotite, Sphalerite, Tetrahedrite","Calcite, Quartz","","Stoner Gold and Silver Mining Corporation","","",""
"260","Bluebird",56.01449,-130.05564,NA,"United States","","M","Lead","","","Unknown","","N","Occurrence","Galena, Scheelite","Pyrite, Quartz","","","","Diorite","Diorite"
"261","Bluebird",56.01449,-130.05564,NA,"United States","","M","Copper","","","Unknown","","N","Occurrence","Galena, Scheelite","Pyrite, Quartz","","","","Diorite","Diorite"
"262","Unnamed Occurrence",60.87819,-147.18978,NA,"United States","","M","Copper","","","Unknown","","N","Occurrence","Chalcopyrite","Pyrrhotite","","","","Basalt","Basalt"
"263","Alaska-Premier",56.0256,-130.04369,NA,"United States","","M","Silver","","","Unknown","","N","Occurrence","Chalcopyrite, Galena, Sphalerite","Pyrite, Quartz","","","","Felsic Volcanic Rock",""
"264","Alaska-Premier",56.0256,-130.04369,NA,"United States","","M","Gold","","","Unknown","","N","Occurrence","Chalcopyrite, Galena, Sphalerite","Pyrite, Quartz","","","","Felsic Volcanic Rock",""
"265","Alaska-Premier",56.0256,-130.04369,NA,"United States","","M","Copper","","","Unknown","","N","Occurrence","Chalcopyrite, Galena, Sphalerite","Pyrite, Quartz","","","","Felsic Volcanic Rock",""
"266","Alaska-Premier",56.0256,-130.04369,NA,"United States","","M","Lead","","","Unknown","","N","Occurrence","Chalcopyrite, Galena, Sphalerite","Pyrite, Quartz","","","","Felsic Volcanic Rock",""
"267","Cripple Creek",56.02477,-130.06869,NA,"United States","","M","Silver","","","Unknown","","","Prospect","Chalcopyrite, Galena, Pyrite, Pyrrhotite, Sphalerite, Tetrahedrite","Quartz","","","","Diorite","Diorite"
"268","Cripple Creek",56.02477,-130.06869,NA,"United States","","M","Copper","","","Unknown","","","Prospect","Chalcopyrite, Galena, Pyrite, Pyrrhotite, Sphalerite, Tetrahedrite","Quartz","","","","Diorite","Diorite"
"269","Cripple Creek",56.02477,-130.06869,NA,"United States","","M","Lead","","","Unknown","","","Prospect","Chalcopyrite, Galena, Pyrite, Pyrrhotite, Sphalerite, Tetrahedrite","Quartz","","","","Diorite","Diorite"
"270","Portland",56.02171,-130.05481,NA,"United States","","M","Copper","","","Unknown","","","Prospect","Chalcopyrite, Galena, Pyrite","Quartz","","","","Greenstone","Diorite"
"271","Portland",56.02171,-130.05481,NA,"United States","","M","Lead","","","Unknown","","","Prospect","Chalcopyrite, Galena, Pyrite","Quartz","","","","Greenstone","Diorite"
"272","Crest",56.01644,-130.06481,NA,"United States","","M","Gold","","","Unknown","","","Prospect","Chalcopyrite, Galena, Pyrite","Quartz","","","","Diorite","Diorite"
"273","Crest",56.01644,-130.06481,NA,"United States","","M","Copper","","","Unknown","","","Prospect","Chalcopyrite, Galena, Pyrite","Quartz","","","","Diorite","Diorite"
"274","Crest",56.01644,-130.06481,NA,"United States","","M","Lead","","","Unknown","","","Prospect","Chalcopyrite, Galena, Pyrite","Quartz","","","","Diorite","Diorite"
"275","Butte",56.01644,-130.06869,NA,"United States","","M","Lead","","","Unknown","","N","Occurrence","Galena, Scheelite","Pyrite, Quartz","","Brigadier, Hyder Butte","","Diorite","Diorite"
"276","Butte",56.01644,-130.06869,NA,"United States","","M","Gold","","","Unknown","","N","Occurrence","Galena, Scheelite","Pyrite, Quartz","","Brigadier, Hyder Butte","","Diorite","Diorite"
"277","Butte",56.01644,-130.06869,NA,"United States","","M","Silver","","","Unknown","","N","Occurrence","Galena, Scheelite","Pyrite, Quartz","","Brigadier, Hyder Butte","","Diorite","Diorite"
"278","Colorado",60.65203,-149.55871,NA,"United States","","M","Gold","","","Unknown","Vein","N","Occurrence","Gold, Silver","Pyrite, Quartz","","","","Slate","Mafic Intrusive Rock"
"279","Colorado",60.65203,-149.55871,NA,"United States","","M","Silver","","","Unknown","Vein","N","Occurrence","Gold, Silver","Pyrite, Quartz","","","","Slate","Mafic Intrusive Rock"
"280","Hobo",56.02088,-130.04564,NA,"United States","","M","Lead","","","Unknown","","","Prospect","Arsenopyrite, Chalcopyrite, Galena, Pyrite, Pyrrhotite, Sphalerite","Calcite, Quartz","","Swede","","",""
"281","Hobo",56.02088,-130.04564,NA,"United States","","M","Copper","","","Unknown","","","Prospect","Arsenopyrite, Chalcopyrite, Galena, Pyrite, Pyrrhotite, Sphalerite","Calcite, Quartz","","Swede","","",""
"282","Hobo",56.02088,-130.04564,NA,"United States","","M","Gold","","","Unknown","","","Prospect","Arsenopyrite, Chalcopyrite, Galena, Pyrite, Pyrrhotite, Sphalerite","Calcite, Quartz","","Swede","","",""
"283","Hobo",56.02088,-130.04564,NA,"United States","","M","Silver","","","Unknown","","","Prospect","Arsenopyrite, Chalcopyrite, Galena, Pyrite, Pyrrhotite, Sphalerite","Calcite, Quartz","","Swede","","",""
"284","Hyder Skookum",56.0106,-130.03758,NA,"United States","","M","Copper","","","Unknown","","N","Occurrence","Chalcopyrite","Pyrrhotite","","","","Greenstone","Diorite"
"285","Engineer",56.04366,-130.21954,NA,"United States","","M","Lead","","","Unknown","","N","Occurrence","Chalcopyrite, Galena, Scheelite","Pyrite, Quartz","","","","Diorite","Diorite"
"286","Engineer",56.04366,-130.21954,NA,"United States","","M","Copper","","","Unknown","","N","Occurrence","Chalcopyrite, Galena, Scheelite","Pyrite, Quartz","","","","Diorite","Diorite"
"287","Engineer",56.04366,-130.21954,NA,"United States","","M","Gold","","","Unknown","","N","Occurrence","Chalcopyrite, Galena, Scheelite","Pyrite, Quartz","","","","Diorite","Diorite"
"288","Engineer",56.04366,-130.21954,NA,"United States","","M","Silver","","","Unknown","","N","Occurrence","Chalcopyrite, Galena, Scheelite","Pyrite, Quartz","","","","Diorite","Diorite"
"289","Titan",56.01088,-130.02369,NA,"United States","","M","Copper","","","Unknown","","","Prospect","Arsenopyrite, Chalcopyrite, Galena, Pyrite, Sphalerite","Quartz","","Titan Salmon River Syndicate","","Greenstone",""
"290","Titan",56.01088,-130.02369,NA,"United States","","M","Lead","","","Unknown","","","Prospect","Arsenopyrite, Chalcopyrite, Galena, Pyrite, Sphalerite","Quartz","","Titan Salmon River Syndicate","","Greenstone",""
"291","Titan",56.01088,-130.02369,NA,"United States","","M","Silver","","","Unknown","","","Prospect","Arsenopyrite, Chalcopyrite, Galena, Pyrite, Sphalerite","Quartz","","Titan Salmon River Syndicate","","Greenstone",""
"292","Titan",56.01088,-130.02369,NA,"United States","","M","Gold","","","Unknown","","","Prospect","Arsenopyrite, Chalcopyrite, Galena, Pyrite, Sphalerite","Quartz","","Titan Salmon River Syndicate","","Greenstone",""
"293","Juneau",56.02477,-130.21564,NA,"United States","","M","Copper","","","Unknown","","","Occurrence","Chalcopyrite, Galena, Pyrite","Quartz","","","","Diorite","Diorite"
"294","Juneau",56.02477,-130.21564,NA,"United States","","M","Lead","","","Unknown","","","Occurrence","Chalcopyrite, Galena, Pyrite","Quartz","","","","Diorite","Diorite"
"295","Sunset",56.02171,-130.21175,NA,"United States","","M","Lead","Barium-Barite","","Unknown","","","Prospect","Galena, Pyrite","Quartz","","","","Diorite","Diorite"
"296","Sunset",56.02171,-130.21175,NA,"United States","","M","Silver","Barium-Barite","","Unknown","","","Prospect","Galena, Pyrite","Quartz","","","","Diorite","Diorite"
"297","Keno",56.03088,-130.2337,NA,"United States","","M","Lead","Barium-Barite","","Unknown","","","Prospect","Chalcopyrite, Galena, Pyrite, Sphalerite, Tetrahedrite","Quartz","","","","Diorite","Diorite"
"298","Keno",56.03088,-130.2337,NA,"United States","","M","Copper","Barium-Barite","","Unknown","","","Prospect","Chalcopyrite, Galena, Pyrite, Sphalerite, Tetrahedrite","Quartz","","","","Diorite","Diorite"
"299","Keno",56.03088,-130.2337,NA,"United States","","M","Gold","Barium-Barite","","Unknown","","","Prospect","Chalcopyrite, Galena, Pyrite, Sphalerite, Tetrahedrite","Quartz","","","","Diorite","Diorite"
"300","Keno",56.03088,-130.2337,NA,"United States","","M","Silver","Barium-Barite","","Unknown","","","Prospect","Chalcopyrite, Galena, Pyrite, Sphalerite, Tetrahedrite","Quartz","","","","Diorite","Diorite"
"301","North Star",56.04671,-130.2237,NA,"United States","","M","Silver","","","Unknown","","","Occurrence","Galena, Pyrite","Quartz","","Bevacque, Bervaqua","","Siltstone","Diorite"
"302","North Star",56.04671,-130.2237,NA,"United States","","M","Gold","","","Unknown","","","Occurrence","Galena, Pyrite","Quartz","","Bevacque, Bervaqua","","Siltstone","Diorite"
"303","North Star",56.04671,-130.2237,NA,"United States","","M","Lead","","","Unknown","","","Occurrence","Galena, Pyrite","Quartz","","Bevacque, Bervaqua","","Siltstone","Diorite"
"304","Jumbo (near Texas Creek)",56.05283,-130.2087,NA,"United States","","M","Copper","","","Unknown","","","Occurrence","Chalcopyrite, Galena, Pyrite, Sphalerite","Quartz","","","","Siltstone","Diorite"
"305","Jumbo (near Texas Creek)",56.05283,-130.2087,NA,"United States","","M","Lead","","","Unknown","","","Occurrence","Chalcopyrite, Galena, Pyrite, Sphalerite","Quartz","","","","Siltstone","Diorite"
"306","Iron Cap",56.06783,-130.21565,NA,"United States","","M","Silver","","","Unknown","","","Prospect","Arsenopyrite, Chalcopyrite, Pyrrhotite, Sphalerite","Calcite, Quartz","","","","Siltstone","Diorite"
"307","Iron Cap",56.06783,-130.21565,NA,"United States","","M","Gold","","","Unknown","","","Prospect","Arsenopyrite, Chalcopyrite, Pyrrhotite, Sphalerite","Calcite, Quartz","","","","Siltstone","Diorite"
"308","Iron Cap",56.06783,-130.21565,NA,"United States","","M","Copper","","","Unknown","","","Prospect","Arsenopyrite, Chalcopyrite, Pyrrhotite, Sphalerite","Calcite, Quartz","","","","Siltstone","Diorite"
"309","Silver Bell",56.07477,-130.20482,NA,"United States","","M","Lead","","","Unknown","","","Occurrence","Chalcopyrite, Galena, Pyrite, Sphalerite, Tetrahedrite","Quartz","","","","Siltstone",""
"310","Silver Bell",56.07477,-130.20482,NA,"United States","","M","Copper","","","Unknown","","","Occurrence","Chalcopyrite, Galena, Pyrite, Sphalerite, Tetrahedrite","Quartz","","","","Siltstone",""
"311","Homestake",56.07477,-130.17065,NA,"United States","","M","Gold","","","Unknown","","","Past Producer","Chalcopyrite, Galena, Pyrite, Sphalerite, Tetrahedrite","Quartz","","","","Diorite","Diorite"
"312","Homestake",56.07477,-130.17065,NA,"United States","","M","Silver","","","Unknown","","","Past Producer","Chalcopyrite, Galena, Pyrite, Sphalerite, Tetrahedrite","Quartz","","","","Diorite","Diorite"
"313","Homestake",56.07477,-130.17065,NA,"United States","","M","Lead","","","Unknown","","","Past Producer","Chalcopyrite, Galena, Pyrite, Sphalerite, Tetrahedrite","Quartz","","","","Diorite","Diorite"
"314","Homestake",56.07477,-130.17065,NA,"United States","","M","Copper","","","Unknown","","","Past Producer","Chalcopyrite, Galena, Pyrite, Sphalerite, Tetrahedrite","Quartz","","","","Diorite","Diorite"
"315","Bartholf",56.08783,-130.07064,NA,"United States","","M","Lead","Barium-Barite","","Unknown","","","Occurrence","Barite, Chalcopyrite, Galena, Pyrite","Quartz","","","","Diorite","Diorite"
"316","Bartholf",56.08783,-130.07064,NA,"United States","","M","Copper","Barium-Barite","","Unknown","","","Occurrence","Barite, Chalcopyrite, Galena, Pyrite","Quartz","","","","Diorite","Diorite"
"317","Silver Bar",56.06088,-130.14564,NA,"United States","","M","Lead","Barium-Barite","","Unknown","","","Occurrence","Barite, Chalcopyrite, Galena, Pyrite","Quartz","","McVey","","Diorite","Diorite"
"318","Silver Bar",56.06088,-130.14564,NA,"United States","","M","Copper","Barium-Barite","","Unknown","","","Occurrence","Barite, Chalcopyrite, Galena, Pyrite","Quartz","","McVey","","Diorite","Diorite"
"319","Liberty",56.05366,-130.17258,NA,"United States","","M","Lead","","","Unknown","","N","Occurrence","Galena","Quartz","","","","Diorite","Diorite"
"320","Nothiger",56.05088,-130.17981,NA,"United States","","M","Lead","","","Unknown","","","Prospect","Galena, Pyrite","Quartz","","Standard","","Diorite","Diorite"
"321","Evening Star",56.06866,-130.17287,NA,"United States","","M","Lead","","","Unknown","","","Prospect","Galena","Quartz","","Morning Star","","Diorite","Diorite"
"322","Ibex",56.07588,-130.18287,NA,"United States","","M","Lead","","","Unknown","","","Prospect","Chalcopyrite, Galena, Pyrite, Sphalerite, Tetrahedrite","Quartz","","","","Argillite","Diorite"
"323","Ibex",56.07588,-130.18287,NA,"United States","","M","Silver","","","Unknown","","","Prospect","Chalcopyrite, Galena, Pyrite, Sphalerite, Tetrahedrite","Quartz","","","","Argillite","Diorite"
"324","Mcleod Bay Prospect",54.68861,-132.71288,NA,"United States","","M","Gold","","Copper, Lead","Unknown","Vein","N","Occurrence","Chalcopyrite, Galena, Gold","Pyrite, Quartz","Surface/Underground","Claims: Daykoo, Delaware, Elk, Elks Pup, Golden Charoit, Mcleod, New York, Virginia, West Virginia","","Schist",""
"325","Silver Coin",56.07755,-130.1687,NA,"United States","","M","Lead","","","Unknown","","","Occurrence","Chalcopyrite, Galena, Malachite, Pyrite","Quartz","","","","Diorite","Diorite"
"326","Silver Coin",56.07755,-130.1687,NA,"United States","","M","Copper","","","Unknown","","","Occurrence","Chalcopyrite, Galena, Malachite, Pyrite","Quartz","","","","Diorite","Diorite"
"327","Alice Prospect",54.71917,-132.11287,NA,"United States","","M","Copper","","","Unknown","","N","Occurrence","Chalcopyrite","","","","","Limestone",""
"328","Feickert",54.7414,-132.1462,NA,"United States","","M","Copper","","","Unknown","Vein","N","Occurrence","Chalcopyrite","Quartz","","","","Diorite",""
"329","Goodhope Prospect",54.86917,-132.28788,NA,"United States","","M","Copper","","","Unknown","Vein","N","Occurrence","Chalcopyrite","Pyrite, Quartz","Surface/Underground","","Veins Are Near Contact With Dikes","Volcanic Rock (Aphanitic)","Granite"
"330","Lakeside Prospect",54.99416,-132.75179,NA,"United States","","M","Copper","","","Unknown","","N","Occurrence","Chalcopyrite","","Underground","","Shear Zones Form Greenstone/Pyroxenite Contact","Greenstone","Diorite"
"331","Lucky Strike Occurrence",54.89139,-132.95457,NA,"United States","","M","Copper","","","Unknown","","N","Occurrence","Chalcopyrite","Limonite, Pyrite, Quartz","","","","Schist",""
"332","Mallard Bay Occurrence",54.77612,-132.01843,NA,"United States","","M","Iron","","","Unknown","","N","Occurrence","Magnetite","","","","","Pyroxenite","Pyroxenite"
"333","Unnamed Prospect",54.93306,-132.21288,NA,"United States","","M","Gold","","","Unknown","","N","Occurrence","","Calcite, Chlorite, Pyrite","","","","Metavolcanic Rock",""
"334","Mount Vesta Prospect",54.93305,-132.96012,NA,"United States","","M","Gold","Copper","Zinc, Lead","Unknown","Vein","N","Occurrence","Chalcopyrite, Galena, Sphalerite, Tetrahedrite","","Surface/Underground","","","Limestone",""
"335","Mount Vesta Prospect",54.93305,-132.96012,NA,"United States","","M","Silver","Copper","Zinc, Lead","Unknown","Vein","N","Occurrence","Chalcopyrite, Galena, Sphalerite, Tetrahedrite","","Surface/Underground","","","Limestone",""
"336","Ranger Prospect",54.83306,-132.31566,NA,"United States","","M","Copper","","Iron","Unknown","","N","Occurrence","Chalcopyrite, Magnetite","","Surface/Underground","","","Volcanic Rock (Aphanitic)","Granite"
"337","Polson and Ickis Group",54.94973,-132.02398,NA,"United States","","M","Gold","","REE","Unknown","","N","Occurrence","Bornite, Chalcopyrite, Chrysocolla, Xenotime","Barite, Calcite, Hematite, Pyrite, Quartz","Surface/Underground","Prospect: Veta, Wano, Polson and Ickis, Claims: Apex, Astor, Daly-West, Hillside","","Monzonite","Diabase"
"338","Polson and Ickis Group",54.94973,-132.02398,NA,"United States","","M","Copper","","REE","Unknown","","N","Occurrence","Bornite, Chalcopyrite, Chrysocolla, Xenotime","Barite, Calcite, Hematite, Pyrite, Quartz","Surface/Underground","Prospect: Veta, Wano, Polson and Ickis, Claims: Apex, Astor, Daly-West, Hillside","","Monzonite","Diabase"
"339","Spik Prospect",54.77195,-132.06287,NA,"United States","","M","Copper","","","Unknown","","N","Occurrence","Bornite, Chalcopyrite","","","Hanson Prospect","","Greenstone","Granite"
"340","Blue Fiord",60.49511,-148.23894,NA,"United States","","M","Gold","","","Unknown","Vein","N","Occurrence","Gold","Pyrite, Quartz","","","","Slate",""
"341","Texas Discovery",56.06366,-130.1987,NA,"United States","","M","Silver","","","Unknown","","","Occurrence","Chalcopyrite, Galena, Pyrite, Pyrrhotite","Quartz","","","","Diorite","Diorite"
"342","Texas Discovery",56.06366,-130.1987,NA,"United States","","M","Gold","","","Unknown","","","Occurrence","Chalcopyrite, Galena, Pyrite, Pyrrhotite","Quartz","","","","Diorite","Diorite"
"343","Texas Discovery",56.06366,-130.1987,NA,"United States","","M","Copper","","","Unknown","","","Occurrence","Chalcopyrite, Galena, Pyrite, Pyrrhotite","Quartz","","","","Diorite","Diorite"
"344","Texas Discovery",56.06366,-130.1987,NA,"United States","","M","Lead","","","Unknown","","","Occurrence","Chalcopyrite, Galena, Pyrite, Pyrrhotite","Quartz","","","","Diorite","Diorite"
"345","Unnamed",56.22169,-131.74792,NA,"United States","","M","Copper","","","Unknown","","","Occurrence","Chalcopyrite","","","","","Schist",""
"346","Unnamed",56.25976,-131.60181,NA,"United States","","M","Copper","","","Unknown","","","Occurrence","","","","","","",""
"347","Bear Creek (lower)",59.40927,-161.13271,NA,"United States","","M","Gold","Platinum","","Unknown","","","Past Producer","Gold","","","","","Volcanic Rock (Aphanitic)","Granite"
"348","Fox Creek",59.36927,-161.12271,NA,"United States","","M","Gold","","","Unknown","","","Past Producer","Gold","","","","","",""
"349","North Spit (Goodnews Bay)",59.06925,-161.87269,NA,"United States","","M","Gold","","","Unknown","","","Occurrence","Chromite, Gold, Magnetite","","","","","",""
"350","Tyone Creek",59.54927,-161.33273,NA,"United States","","M","Gold","","","Unknown","","","Past Producer","Gold","","","","","",""
"351","Jacksmith Creek",59.38926,-161.58272,NA,"United States","","M","Gold","","","Unknown","","","Prospect","Gold","","","","","",""
"352","Unnamed (tributary to upper Trail Creek)",59.98931,-159.62274,NA,"United States","","M","Gold","","","Unknown","","","Past Producer","Gold","","","","","",""
"353","East Point Mining Co.",60.41175,-149.1784,NA,"United States","","M","Gold","","","Unknown","","S","Past Producer","","Calcite, Pyrite, Pyrrhotite, Quartz","Surface/Underground","","","Siltstone",""
"354","Domingo Creek",59.44926,-161.52272,NA,"United States","","M","Gold","","","Unknown","","","Past Producer","Gold","","","","","","Granite"
"355","Sam Creek",59.83234,-160.79663,NA,"United States","","M","Gold","","","Unknown","","","Prospect","Gold","","","","","Clastic Sedimentary Rock","Mafic Intrusive Rock"
"356","Slate Creek",59.30927,-161.2327,NA,"United States","","M","Gold","","","Unknown","","","Past Producer","Gold","","","","","Volcanic Rock (Aphanitic)","Granite"
"357","Kagati Lake",59.9193,-159.91274,NA,"United States","","M","Gold","","","Unknown","","","Prospect","Cinnabar, Orpiment, Realgar, Stibnite","Calcite, Quartz, Tourmaline","","","","",""
"358","Unnamed (west bank of Togiak River)",59.29929,-160.17269,NA,"United States","","M","Copper","Mercury, Gold, Silver, Molybdenum","","Unknown","","","Occurrence","Chalcopyrite, Pyrite, Sphalerite","Quartz","","","","",""
"359","Kemuk River",59.65763,-159.82771,NA,"United States","","M","Copper","","","Unknown","","N","Occurrence","","","","","","Clastic Sedimentary Rock",""
"360","Olympic Creek",59.33927,-161.22271,NA,"United States","","M","Gold","Platinum","","Unknown","","","Past Producer","Gold","","","","","Volcanic Rock (Aphanitic)","Granite"
"361","Canyon Creek",59.41927,-161.11465,NA,"United States","","M","Gold","","","Unknown","","","Prospect","Gold","","","","","Volcanic Rock (Aphanitic)","Granite"
"362","Lower Daly-Alaska",56.03171,-130.04481,NA,"United States","","M","Lead","","","Unknown","","","Past Producer","Arsenopyrite, Chalcopyrite, Freibergite, Galena, Pyrite, Pyrrhotite, Sphalerite, Tetrahedrite, Silver","Calcite, Quartz","","Iron, Elevenmile","","Greenstone","Diorite"
"363","Lower Daly-Alaska",56.03171,-130.04481,NA,"United States","","M","Gold","","","Unknown","","","Past Producer","Arsenopyrite, Chalcopyrite, Freibergite, Galena, Pyrite, Pyrrhotite, Sphalerite, Tetrahedrite, Silver","Calcite, Quartz","","Iron, Elevenmile","","Greenstone","Diorite"
"364","Lower Daly-Alaska",56.03171,-130.04481,NA,"United States","","M","Copper","","","Unknown","","","Past Producer","Arsenopyrite, Chalcopyrite, Freibergite, Galena, Pyrite, Pyrrhotite, Sphalerite, Tetrahedrite, Silver","Calcite, Quartz","","Iron, Elevenmile","","Greenstone","Diorite"
"365","Lower Daly-Alaska",56.03171,-130.04481,NA,"United States","","M","Silver","","","Unknown","","","Past Producer","Arsenopyrite, Chalcopyrite, Freibergite, Galena, Pyrite, Pyrrhotite, Sphalerite, Tetrahedrite, Silver","Calcite, Quartz","","Iron, Elevenmile","","Greenstone","Diorite"
"366","Upper Daly-Alaska",56.02894,-130.03925,NA,"United States","","M","Copper","","","Unknown","","","Past Producer","Arsenopyrite, Chalcopyrite, Galena, Pyrite, Pyrrhotite, Sphalerite, Tetrahedrite","Calcite, Quartz","","Hoosier, Bertha, Western","","",""
"367","Upper Daly-Alaska",56.02894,-130.03925,NA,"United States","","M","Lead","","","Unknown","","","Past Producer","Arsenopyrite, Chalcopyrite, Galena, Pyrite, Pyrrhotite, Sphalerite, Tetrahedrite","Calcite, Quartz","","Hoosier, Bertha, Western","","",""
"368","Upper Daly-Alaska",56.02894,-130.03925,NA,"United States","","M","Gold","","","Unknown","","","Past Producer","Arsenopyrite, Chalcopyrite, Galena, Pyrite, Pyrrhotite, Sphalerite, Tetrahedrite","Calcite, Quartz","","Hoosier, Bertha, Western","","",""
"369","Upper Daly-Alaska",56.02894,-130.03925,NA,"United States","","M","Silver","","","Unknown","","","Past Producer","Arsenopyrite, Chalcopyrite, Galena, Pyrite, Pyrrhotite, Sphalerite, Tetrahedrite","Calcite, Quartz","","Hoosier, Bertha, Western","","",""
"370","Swennings Greenpoint",56.01477,-130.26565,NA,"United States","","M","Lead","Copper, Zinc","","Unknown","","","Occurrence","Galena, Molybdenite","Quartz","","","","Hornfels","Quartz Monzonite"
"371","Swennings Greenpoint",56.01477,-130.26565,NA,"United States","","M","Silver","Copper, Zinc","","Unknown","","","Occurrence","Galena, Molybdenite","Quartz","","","","Hornfels","Quartz Monzonite"
"372","Greenpoint",56.02477,-130.3237,NA,"United States","","M","Silver","","","Unknown","","","Prospect","Chalcopyrite, Galena, Molybdenite, Pyrite","Calcite, Quartz","","","","Hornfels",""
"373","Greenpoint",56.02477,-130.3237,NA,"United States","","M","Copper","","","Unknown","","","Prospect","Chalcopyrite, Galena, Molybdenite, Pyrite","Calcite, Quartz","","","","Hornfels",""
"374","Greenpoint",56.02477,-130.3237,NA,"United States","","M","Lead","","","Unknown","","","Prospect","Chalcopyrite, Galena, Molybdenite, Pyrite","Calcite, Quartz","","","","Hornfels",""
"375","Wattamuse Creek",59.3326,-161.23604,NA,"United States","","M","Gold","","","Unknown","Placer","S","Producer","Gold","","","","","Gravel","Granite"
"376","Rainy Creek",59.99931,-160.13608,NA,"United States","","M","Gold","Mercury","","Unknown","Placer","S","Past Producer","Cinnabar, Gold","","","","","",""
"377","Big Passage Copper Mining Co.",60.43317,-147.65836,NA,"United States","","M","Copper","Zinc","","Unknown","","N","Occurrence","Chalcopyrite, Sphalerite","Chlorite, Epidote, Pyrrhotite, Quartz","","","","Greenstone",""
"378","Lost Zarembo",56.38085,-132.90075,NA,"United States","","M","Lead","","","Unknown","","","Occurrence","Chalcopyrite, Galena, Pyrite, Sphalerite","","","","","Rhyolite","Rhyolite"
"379","Lost Zarembo",56.38085,-132.90075,NA,"United States","","M","Copper","","","Unknown","","","Occurrence","Chalcopyrite, Galena, Pyrite, Sphalerite","","","","","Rhyolite","Rhyolite"
"380","Halobia",56.67168,-133.25994,NA,"United States","","M","Silver","Arsenic, Copper, Barium-Barite","","Unknown","","","Prospect","Galena, Pyrite, Sphalerite","","","","","Phyllite",""
"381","Halobia",56.67168,-133.25994,NA,"United States","","M","Lead","Arsenic, Copper, Barium-Barite","","Unknown","","","Prospect","Galena, Pyrite, Sphalerite","","","","","Phyllite",""
"382","Hydropit",56.37363,-132.9188,NA,"United States","","M","Lead","","","Unknown","","","Occurrence","Arsenopyrite, Bornite, Chalcopyrite, Galena, Magnetite, Sphalerite","Quartz","","","","Diorite","Andesite"
"383","Hydropit",56.37363,-132.9188,NA,"United States","","M","Copper","","","Unknown","","","Occurrence","Arsenopyrite, Bornite, Chalcopyrite, Galena, Magnetite, Sphalerite","Quartz","","","","Diorite","Andesite"
"384","Taylor Creek",56.79363,-133.36383,NA,"United States","","M","Lead","","","Unknown","","","Prospect","Chalcopyrite, Galena, Pyrite, Sphalerite","","","","","Marble","Diabase"
"385","Taylor Creek",56.79363,-133.36383,NA,"United States","","M","Silver","","","Unknown","","","Prospect","Chalcopyrite, Galena, Pyrite, Sphalerite","","","","","Marble","Diabase"
"386","Taylor Creek",56.79363,-133.36383,NA,"United States","","M","Copper","","","Unknown","","","Prospect","Chalcopyrite, Galena, Pyrite, Sphalerite","","","","","Marble","Diabase"
"387","Northern Copper Company",56.88668,-133.37496,NA,"United States","","M","Copper","","","Unknown","","","Prospect","Chalcopyrite, Magnetite, Pyrrhotite, Sphalerite","","","Tower Arm Copper, Portage Bay Copper Company","","Granite",""
"388","Byers Prospect",60.87763,-147.44284,NA,"United States","","M","Copper","","","Unknown","","N","Occurrence","","","","","","Clastic Sedimentary Rock",""
"389","Calif. - Alaska Mining Co.",60.42592,-149.26313,NA,"United States","","M","Gold","","Lead, Zinc","Unknown","","S","Past Producer","Galena, Gold","Calcite, Pyrite, Quartz","Underground","","","Siltstone",""
"390","Unnamed (near Point St. Albans)",56.10972,-133.95882,NA,"United States","","M","Lead","Antimony","","Unknown","","","Occurrence","Arsenopyrite, Galena, Pyrite, Sphalerite, Berthierite","Quartz","","","","Diorite","Diorite"
"391","Unnamed (near Point St. Albans)",56.10972,-133.95882,NA,"United States","","M","Silver","Antimony","","Unknown","","","Occurrence","Arsenopyrite, Galena, Pyrite, Sphalerite, Berthierite","Quartz","","","","Diorite","Diorite"
"392","Helen S",56.56974,-133.06798,NA,"United States","","M","Gold","Barium-Barite","","Unknown","","","Producer","Chalcopyrite, Galena, Gold, Sphalerite","Quartz","","Olympic Mining","","Greenstone","Mafic Intrusive Rock"
"393","Helen S",56.56974,-133.06798,NA,"United States","","M","Lead","Barium-Barite","","Unknown","","","Producer","Chalcopyrite, Galena, Gold, Sphalerite","Quartz","","Olympic Mining","","Greenstone","Mafic Intrusive Rock"
"394","Helen S",56.56974,-133.06798,NA,"United States","","M","Copper","Barium-Barite","","Unknown","","","Producer","Chalcopyrite, Galena, Gold, Sphalerite","Quartz","","Olympic Mining","","Greenstone","Mafic Intrusive Rock"
"395","Exchange",56.42168,-132.53379,NA,"United States","","M","Gold","","","Unknown","","","Prospect","Galena, Gold, Pyrite, Sphalerite","Quartz","","","","Granite","Granite"
"396","Unnamed (in Glacier Basin)",56.47975,-132.03878,NA,"United States","","M","Lead","Molybdenum","","Unknown","","","Prospect","Galena, Sphalerite","Fluorite, Quartz","","","","Granulite","Diorite"
"397","Hattie",56.53168,-133.04798,NA,"United States","","M","Gold","","","Unknown","","","Producer","Galena, Sphalerite, Pyrite, Chalcopyrite","Quartz","","","","Felsic Metamorphic Rock","Greenstone"
"398","Maid of Mexico",56.56474,-133.03687,NA,"United States","","M","Gold","Silver, Copper, Lead, Zinc","","Unknown","","","Producer","Chalcopyrite, Galena, Gold, Pyrite, Sphalerite","Quartz","","Maid of Texas","","Mudstone","Tuff"
"399","Silver Star",56.83974,-133.26189,NA,"United States","","M","Silver","","","Unknown","","","Prospect","Chalcopyrite, Gold, Magnetite, Pyrite","Calcite, Quartz","","","","Schist","Diorite"
"400","Silver Star",56.83974,-133.26189,NA,"United States","","M","Gold","","","Unknown","","","Prospect","Chalcopyrite, Gold, Magnetite, Pyrite","Calcite, Quartz","","","","Schist","Diorite"
"401","Carter Claims",60.94928,-147.95175,NA,"United States","","M","Gold","","","Unknown","Vein","N","Occurrence","Gold","","","Claims: O.K. No. 1, New York","","Siltstone",""
"402","Case Mine",60.50147,-149.30786,NA,"United States","","M","Gold","","","Unknown","Vein","S","Past Producer","Gold","Quartz","","Grant Lake Mine","","",""
"403","Cathead Bay",60.27788,-147.83808,NA,"United States","","M","Copper","","","Unknown","","N","Occurrence","","Pyrite","","","","Basalt","Basalt"
"404","Unnamed (on Thomas Bay)",56.98975,-132.79382,NA,"United States","","M","Gold","Lead, Copper, Arsenic","","Unknown","","","Prospect","Arsenopyrite, Chalcopyrite, Galena, Pyrite, Pyrrhotite","Quartz","","","","",""
"405","Castle and Company",56.13473,-133.45992,NA,"United States","","M","Gold","","","Unknown","","","Past Producer","Pyrite","Quartz","","","","",""
"406","Alaska Oracle Mining Co.",60.49954,-148.50256,NA,"United States","","M","Gold","","Molybdenum, Zinc, Lead, Copper","Unknown","","S","Past Producer","Chalcopyrite, Galena, Molybdenite, Pyrrhotite, Sphalerite","Calcite, Quartz","Underground","Heaston Mine: Claims: Oracle No. 2, Oracle Extension","Vein Is Contained Within A Fault Zone","Siltstone","Mafic Intrusive Rock"
"407","Unnamed (near Devilfish Bay)",56.08473,-133.39075,NA,"United States","","M","Copper","","","Unknown","","","Prospect","Chalcopyrite, Magnetite, Molybdenite","","","","","Skarn (Tactite)","Diorite"
"408","Alhambra Group",60.30762,-147.7128,NA,"United States","","M","Copper","","","Unknown","","N","Occurrence","","","","U and I Group, Una Group","","",""
"409","Arrowhead Prospect",60.96567,-148.01591,NA,"United States","","M","Gold","","","Unknown","Vein","N","Occurrence","","Pyrite, Quartz","","Wagner Prospect","","Slate",""
"410","Banner Prospect",60.93678,-148.30092,NA,"United States","","M","Gold","","Lead, Zinc","Unknown","","N","Occurrence","Galena, Gold, Sphalerite","","Underground","","","Mafic Intrusive Rock","Mafic Intrusive Rock"
"411","Banta and Sullivan Occurrence",60.82899,-148.65703,NA,"United States","","M","Gold","","","Unknown","Vein","N","Occurrence","","","","","","",""
"412","Unnamed Prospect",60.41039,-147.65114,NA,"United States","","M","Copper","","","Unknown","","N","Occurrence","Chalcopyrite","Pyrrhotite","","","","Greenstone",""
"413","Brown Bear Claim",60.33647,-149.31924,NA,"United States","","M","Gold","","Zinc, Lead","Unknown","Vein","N","Occurrence","Galena, Gold","Calcite, Pyrite, Quartz","","","","Slate",""
"414","Bullion",60.84511,-148.60787,NA,"United States","","M","Gold","","","Unknown","Vein","N","Occurrence","Gold","Quartz","","","","Slate",""
"415","Conley & Mcchesney",60.98401,-147.89925,NA,"United States","","M","Gold","","Copper, Lead","Unknown","Vein","N","Occurrence","Chalcopyrite, Galena, Gold","Pyrite","","Claims: Bluebell, Perseverance, Whistler","","",""
"416","Copper Bay",60.26705,-147.84141,NA,"United States","","M","Copper","Zinc","","Unknown","","N","Occurrence","Chalcopyrite, Sphalerite","Calcite, Pyrite, Pyrrhotite, Quartz","","","","Basalt","Basalt"
"417","Copper Bullion Prospect",60.34789,-147.63475,NA,"United States","","M","Copper","Gold, Silver","Zinc","Unknown","","N","Occurrence","Chalcopyrite, Pyrrhotite, Sphalerite","","Surface/Underground","Rua Cove, Solar Development Co., Claims: Iron Bullion Nos. 1-3 Bullion Nos. 1-16","","Basalt","Diorite"
"418","Copper Cheif",60.01785,-149.25032,NA,"United States","","M","Copper","","","Unknown","","N","Occurrence","Chalcopyrite","Epidote, Hematite, Pyrite, Quartz","","","","Basalt","Basalt"
"419","Copper Coin",60.30038,-147.77725,NA,"United States","","M","Copper","","","Unknown","","S","Past Producer","Chalcopyrite, Cubanite","Pyrrhotite, Quartz","","Russell Ball Copper Co.","","Basalt","Basalt"
"420","Crown Copper Co.",60.42289,-147.71697,NA,"United States","","M","Copper","Zinc","","Unknown","Vein","N","Occurrence","Chalcopyrite, Sphalerite","Pyrite, Quartz","","","","Basalt",""
"421","Day Harbor",60.0273,-149.12948,NA,"United States","","M","Copper","","","Unknown","","N","Occurrence","Chalcopyrite","Augite, Pyrite, Pyrrhotite","","","","Pegmatite","Peridotite"
"422","Devils Creek",60.59202,-149.66898,NA,"United States","","M","Gold","","","Unknown","Vein","N","Occurrence","","Quartz","","","","Mafic Intrusive Rock","Mafic Intrusive Rock"
"423","Disk I.",60.48706,-147.65421,NA,"United States","","M","Copper","","","Unknown","","N","Occurrence","Chalcopyrite","Epidote, Pyrite, Pyrrhotite, Quartz","","","","Basalt","Basalt"
"424","Donaldson Cr",60.77509,-149.49177,NA,"United States","","M","Gold","","","Unknown","","N","Occurrence","","","","","","Siltstone",""
"425","Eldorado",60.87289,-147.82813,NA,"United States","","M","Gold","","","Unknown","","N","Occurrence","Gold","","","","","Schist",""
"426","Frenchy Creek",60.74981,-149.52343,NA,"United States","","M","Gold","","","Unknown","","N","Occurrence","","","","","","Mafic Intrusive Rock","Mafic Intrusive Rock"
"427","Fresno, Creek",60.69203,-149.53593,NA,"United States","","M","Gold","","Lead","Unknown","","S","Past Producer","Galena, Gold","Quartz","","","","Mafic Intrusive Rock","Mafic Intrusive Rock"
"428","Frodenburg and Bloom",60.98039,-147.97869,NA,"United States","","M","Gold","","","Unknown","Vein","N","Occurrence","Gold","Quartz","","","","Siltstone",""
"429","George & Mcfarland",60.94456,-148.31315,NA,"United States","","M","Gold","","Lead","Unknown","Vein","N","Occurrence","Galena, Gold","Pyrite, Quartz","","","","Siltstone",""
"430","Gilpatrick",60.61647,-149.57037,NA,"United States","","M","Gold","Silver","Copper, Zinc, Lead","Unknown","","N","Occurrence","Chalcopyrite, Galena, Gold, Silver, Sphalerite","Calcite, Pyrite, Quartz","Surface/Underground","","","Siltstone",""
"431","Gold Eagle",60.96206,-148.00369,NA,"United States","","M","Gold","","","Unknown","Vein","S","Past Producer","Gold","Chlorite, Pyrrhotite, Quartz","Surface/Underground","","Code Is At Slate Graywacke Contact","Siltstone",""
"432","Golden Giant Prospect",60.85399,-148.59148,NA,"United States","","M","Gold","","Zinc, Lead","Unknown","","N","Occurrence","Galena, Gold, Sphalerite","Calcite, Quartz","","Collins, Fisher and Barry Prospect","","Siltstone",""
"433","Golden Wonder #1",60.97178,-147.98008,NA,"United States","","M","Gold","","Lead","Unknown","","S","Past Producer","Galena, Gold","Calcite, Quartz","","","","Siltstone",""
"434","Golden Wonder #9",60.98095,-147.97258,NA,"United States","","M","Gold","","Copper, Zinc","Unknown","","N","Occurrence","Chalcopyrite, Gold, Sphalerite","Quartz","","","","Slate",""
"435","Gold Stamp Mining Co.",60.88342,-149.53733,NA,"United States","","M","Gold","","Zinc, Copper, Lead","Unknown","Vein","N","Occurrence","Galena, Gold, Sphalerite","Calcite, Pyrite, Quartz","Surface/Underground","","","Sandstone","Mafic Intrusive Rock"
"436","Graham and Harrison",60.26511,-147.73502,NA,"United States","","M","Copper","","","Unknown","","N","Occurrence","Chalcopyrite","Pyrrhotite","Underground","","","Basalt","Basalt"
"437","Griset",60.96984,-148.00036,NA,"United States","","M","Gold","","","Unknown","","N","Occurrence","Gold","Pyrite, Quartz","","Keynote","","Siltstone",""
"438","Harvey",60.24649,-147.7853,NA,"United States","","M","Copper","","","Unknown","","N","Occurrence","Chalcopyrite","Pyrite, Pyrrhotite","","Harrey","","Basalt","Basalt"
"439","Herman and Eaton",60.95039,-148.35509,NA,"United States","","M","Gold","","Lead, Copper, Zinc","Unknown","","S","Past Producer","Chalcopyrite, Galena, Gold, Sphalerite","Pyrrhotite, Quartz","Underground","Merrill, Mineral King, Bettles Bay, Herman-Everman","","Siltstone",""
"440","Hirshey and Carlson",60.80231,-149.54178,NA,"United States","","M","Gold","","Lead, Zinc, Copper","Unknown","","N","Occurrence","Chalcopyrite, Galena, Gold, Sphalerite","Calcite, Pyrite, Quartz","","","","Siltstone",""
"441","Hogan, Hample and Egan",60.19983,-147.74641,NA,"United States","","M","Copper","","","Unknown","","N","Occurrence","Chalcopyrite","","Underground","","","Clastic Sedimentary Rock",""
"442","Home Camp",60.23455,-147.77974,NA,"United States","","M","Copper","Zinc","","Unknown","","N","Occurrence","Chalcopyrite, Cubanite, Sphalerite","Pyrrhotite, Quartz","Surface/Underground","","","Slate","Greenstone"
"443","Schultz",60.22705,-147.76502,NA,"United States","","M","Copper","","","Unknown","","N","Occurrence","Chalcopyrite","Pyrrhotite","Surface","","","Schist",""
"444","Independence",60.66481,-149.55038,NA,"United States","","M","Gold","","","Unknown","","S","Past Producer","Gold","Quartz","","","","Mafic Intrusive Rock","Mafic Intrusive Rock"
"445","Indian",60.99036,-149.50206,NA,"United States","","M","Lead","","","Unknown","Vein","N","Occurrence","Galena","Quartz","","","","Sandstone",""
"446","Iron Cap",60.01063,-149.25115,NA,"United States","","M","Copper","Iron","","Unknown","","N","Occurrence","Chalcopyrite, Magnetite, Pyrite","","","","","Basalt","Basalt"
"447","Iron Mask",60.67564,-149.60927,NA,"United States","","M","Gold","","Lead, Zinc, Copper","Unknown","","N","Occurrence","Chalcopyrite, Galena, Gold, Sphalerite","Calcite, Quartz","","","","Mafic Intrusive Rock","Mafic Intrusive Rock"
"448","Palmer Cr.",60.85342,-149.62344,NA,"United States","","M","Gold","Silver","","Unknown","","S","Past Producer","Gold, Silver","","","","","Gravel",""
"449","Jackpot Bay",60.31677,-148.25282,NA,"United States","","M","Gold","Silver","Zinc, Lead","Unknown","Vein","N","Occurrence","Galena, Gold, Sphalerite","Quartz","","","","Siltstone",""
"450","Jensen, Wallace, and Kilbourne",60.89486,-147.09616,NA,"United States","","M","Copper","","","Unknown","","N","Occurrence","Chalcopyrite","Pyrite, Quartz","","","","Basalt","Basalt"
"451","Johnson",60.62981,-149.56453,NA,"United States","","M","Gold","","","Unknown","","S","Past Producer","Gold, Silver","Calcite, Pyrite, Quartz","","","","Mafic Intrusive Rock","Mafic Intrusive Rock"
"452","Johnson",60.62981,-149.56453,NA,"United States","","M","Silver","","","Unknown","","S","Past Producer","Gold, Silver","Calcite, Pyrite, Quartz","","","","Mafic Intrusive Rock","Mafic Intrusive Rock"
"453","Johnson and Skeen",60.66285,-149.76482,NA,"United States","","M","Gold","","","Unknown","Vein","N","Occurrence","Gold","Quartz","Surface/Underground","","","Siltstone",""
"454","Jonesy Mine",60.33845,-147.73753,NA,"United States","","M","Copper","","","Unknown","","S","Past Producer","Chalcopyrite","Actinolite, Pyrrhotite, Quartz","","Bald Eagle, Knight Island Consolidated Copper Co.","","Greenschist","Basalt"
"455","Falck",60.8657,-146.57143,NA,"United States","","M","Copper","Silver","","Unknown","","","Prospect","Chalcopyrite, Pyrite, Pyrrhotite, Sphalerite, Copper","Calcite, Quartz","","","","Metavolcanic Rock",""
"456","Fielder & Hemple",60.85765,-146.54254,NA,"United States","","M","Copper","Gold, Silver","","Unknown","","","Prospect","Chalcopyrite, Pyrite, Pyrrhotite","Quartz","","","","Slate",""
"457","Mogul (Banta and Cameron)",60.89959,-146.60365,NA,"United States","","M","Copper","","","Unknown","","","Prospect","Chalcopyrite, Pyrite, Pyrrhotite, Sphalerite","","","","","Metavolcanic Rock","Metavolcanic Rock"
"458","Sells Prospect",60.74066,-148.21563,NA,"United States","","M","Gold","","","Unknown","Vein","N","Occurrence","","Pyrite, Quartz","","Reagan Prospect","","Slate",""
"459","Dickey Copper Co.",60.76959,-146.41253,NA,"United States","","M","Gold","Lead, Silver, Cobalt, Zinc","","Unknown","","","Past Producer","Chalcopyrite, Pyrite, Pyrrhotite, Sphalerite","Calcite, Quartz","","Mason & Gleason Co.","","Siltstone",""
"460","Dickey Copper Co.",60.76959,-146.41253,NA,"United States","","M","Copper","Lead, Silver, Cobalt, Zinc","","Unknown","","","Past Producer","Chalcopyrite, Pyrite, Pyrrhotite, Sphalerite","Calcite, Quartz","","Mason & Gleason Co.","","Siltstone",""
"461","Head-Of-The-Bay (Cordova - Tacoma Copper Co.)",60.66266,-145.55361,NA,"United States","","M","Copper","Silver, Zinc","","Unknown","","","Prospect","Chalcopyrite, Pyrrhotite","","","","","Siltstone","Diorite"
"462","Cordova Copper Co.",60.56654,-145.72582,NA,"United States","","M","Copper","Gold","","Unknown","","","Prospect","Bornite, Chalcocite, Chalcopyrite, Cuprite, Gold, Malachite, Copper","Calcite, Chlorite, Epidote, Quartz","","Fleming Spit","","Metavolcanic Rock",""
"463","Three Mile Canyon",61.0002,-144.13581,NA,"United States","","M","Gold","","","Unknown","","S","Past Producer","","","","","","",""
"464","Banzer",60.80959,-146.54253,NA,"United States","","M","Lead","","","Unknown","","","Prospect","Chalcopyrite, Galena, Pyrite, Pyrrhotite","Calcite, Quartz","","","","Metavolcanic Rock",""
"465","Banzer",60.80959,-146.54253,NA,"United States","","M","Copper","","","Unknown","","","Prospect","Chalcopyrite, Galena, Pyrite, Pyrrhotite","Calcite, Quartz","","","","Metavolcanic Rock",""
"466","Banzer",60.80959,-146.54253,NA,"United States","","M","Gold","","","Unknown","","","Prospect","Chalcopyrite, Galena, Pyrite, Pyrrhotite","Calcite, Quartz","","","","Metavolcanic Rock",""
"467","Unnamed Occurrence",60.99961,-146.26921,NA,"United States","","M","Copper","","","Unknown","","N","Occurrence","","","","","","Metavolcanic Rock",""
"468","Seward Gold Co.",60.65036,-149.29398,NA,"United States","","M","Gold","","Zinc, Lead","Unknown","Vein","N","Occurrence","Galena, Gold","","Underground","Claims: Telluride","","Slate",""
"469","Shaw, Debruel & Bouchart",60.10591,-149.26172,NA,"United States","","M","Copper","","","Unknown","","N","Occurrence","Chalcopyrite","Pyrrhotite","","","","",""
"470","Shaw, Debruel & Bouchart",60.10591,-149.26172,NA,"United States","","M","Gold","","","Unknown","","N","Occurrence","Chalcopyrite","Pyrrhotite","","","","",""
"471","Shell",60.67286,-149.54316,NA,"United States","","M","Gold","","","Unknown","Vein","N","Occurrence","","Quartz","","","","Siltstone",""
"472","Chisna Consolidated (Buckeye Group)",60.84765,-146.53143,NA,"United States","","M","Copper","Gold, Silver","","Unknown","","","Past Producer","Chalcopyrite, Pyrite","","","","","Metavolcanic Rock",""
"473","Unnamed [on Pete Dahl (Copper Sands) Island]",60.3496,-145.54247,NA,"United States","","M","Gold","Chromium, Iron, Nickel, Titanium, Zirconium, Vanadium, Manganese","","Unknown","","","Occurrence","","","","","","",""
"474","Hoodoo and South Landlocked Bay Mining Co.",60.84959,-146.55254,NA,"United States","","M","Copper","Gold, Silver","","Unknown","","","Past Producer","Chalcopyrite, Sphalerite, Copper","Quartz","","","","Metavolcanic Rock",""
"475","Red Head #1",60.67959,-146.46252,NA,"United States","","M","Gold","Titanium, Iron","","Unknown","","","Prospect","Garnet, Ilmenite, Magnetite","","","","","",""
"476","Wilson Point",60.6596,-145.6725,NA,"United States","","M","Gold","","","Unknown","","","Prospect","","Quartz","","","","Siltstone",""
"477","Wilson Point",60.6596,-145.6725,NA,"United States","","M","Silver","","","Unknown","","","Prospect","","Quartz","","","","Siltstone",""
"478","Singletary - O'Neill Prospect",60.96789,-148.41648,NA,"United States","","M","Gold","","","Unknown","","N","Occurrence","","","","","","Clastic Sedimentary Rock",""
"479","Siwash Bay",60.96929,-147.6384,NA,"United States","","M","Copper","","","Unknown","","N","Occurrence","","","","","","",""
"480","Sky Pilot",60.98288,-148.45649,NA,"United States","","M","Gold","","","Unknown","Vein","N","Occurrence","Gold","Quartz","","","","Slate",""
"481","Slate Cr.",60.60953,-149.57315,NA,"United States","","M","Gold","","","Unknown","Vein","N","Occurrence","Gold, Silver","Quartz","","","","Schist",""
"482","Slate Cr.",60.60953,-149.57315,NA,"United States","","M","Silver","","","Unknown","Vein","N","Occurrence","Gold, Silver","Quartz","","","","Schist",""
"483","Reynolds-Alaska Development Co.",60.88265,-146.6306,NA,"United States","","M","Copper","Silver","","Unknown","","","Past Producer","Chalcopyrite, Pyrrhotite, Sphalerite","","","","","Siltstone",""
"484","Ripstein Ledge Prospect",60.88292,-146.61921,NA,"United States","","M","Silver","","","Unknown","","N","Occurrence","","Marcasite, Pyrite, Quartz","Surface","","Shearzone","Metasedimentary Rock",""
"485","Ripstein Ledge Prospect",60.88292,-146.61921,NA,"United States","","M","Gold","","","Unknown","","N","Occurrence","","Marcasite, Pyrite, Quartz","Surface","","Shearzone","Metasedimentary Rock",""
"486","Rua",60.88348,-146.64615,NA,"United States","","M","Copper","","","Unknown","","","Prospect","Pyrite, Pyrrhotite","","","","","",""
"487","Wagner Mine",60.51958,-146.41251,NA,"United States","","M","Copper","","","Unknown","","N","Occurrence","Chalcopyrite","Quartz","Underground","","Shear Zone","Siltstone",""
"488","Jack Bay #3",60.96959,-146.45254,NA,"United States","","M","Gold","","","Unknown","","","Prospect","Arsenopyrite, Gold","Limonite, Quartz","","","","Siltstone",""
"489","McKinley Lake mine, Rilley Group, Lucky Strike prospect, Bear Creek prospect (McKinley Lake gold camp)",60.48044,-145.19553,NA,"United States","","M","Gold","Antimony, Arsenic, Silver","","Unknown","","","Past Producer","Gold, Pyrite, Stibnite","Quartz","","","","Siltstone",""
"490","Schoonover",60.27841,-149.40923,NA,"United States","","M","Gold","","Lead, Zinc","Unknown","Vein","N","Occurrence","Galena, Gold","Calcite, Pyrite, Quartz","","","","Siltstone",""
"491","Squaw Gulch Placer",64.14699,-141.1721,NA,"United States","","M","Gold","","","Unknown","Unknown","S","Producer","Gold","","","","","Limestone,Granite",""
"492","Snug Harbor",60.25649,-147.70113,NA,"United States","","M","Copper","","","Unknown","","N","Occurrence","Chalcopyrite","Pyrrhotite, Quartz","","","","Siltstone",""
"493","Sollars Occurrence",60.47481,-149.25313,NA,"United States","","M","Gold","","","Unknown","Vein","N","Occurrence","","","","","","Slate",""
"494","South Arm Occurrence",60.36956,-147.69725,NA,"United States","","M","Copper","","","Unknown","","N","Occurrence","Chalcopyrite","Pyrrhotite","","","","Slate",""
"495","South Marsha Bay",60.32039,-147.66613,NA,"United States","","M","Copper","","","Unknown","","N","Occurrence","Chalcopyrite","Pyrite, Quartz","","","","Schist",""
"496","Strong",60.99036,-149.50179,NA,"United States","","M","Gold","","","Unknown","Vein","S","Past Producer","Gold","Calcite, Iron, Pyrite, Quartz","","Indian Creek","","Siltstone",""
"497","Sweepstake Mining Co.",60.99263,-147.92508,NA,"United States","","M","Gold","","Copper","Unknown","Vein","S","Past Producer","Chalcopyrite, Gold","Calcite, Chlorite, Feldspar, Pyrite, Pyrrhotite, Quartz","","","","Slate",""
"498","Sweepstake Mining Co.",60.97484,-148.39926,NA,"United States","","M","Gold","","Zinc, Lead, Copper, Antimony","Unknown","Vein","N","Occurrence","Chalcopyrite, Galena, Gold, Sphalerite, Stibnite","Calcite, Pyrite, Quartz","","Imp Vein","","Siltstone","Felsic Volcanic Rock"
"499","Swetmann",60.61509,-149.57926,NA,"United States","","M","Silver","","Copper, Lead","Unknown","Vein","N","Occurrence","Chalcopyrite, Galena, Gold, Silver","Pyrite, Quartz","Underground","","At Slate/Graywacke Contact","Siltstone",""
"500","Swetmann",60.61509,-149.57926,NA,"United States","","M","Gold","","Copper, Lead","Unknown","Vein","N","Occurrence","Chalcopyrite, Galena, Gold, Silver","Pyrite, Quartz","Underground","","At Slate/Graywacke Contact","Siltstone",""
"501","Tolson & Stanton",60.94484,-147.94675,NA,"United States","","M","Gold","","Zinc","Unknown","Vein","N","Occurrence","Gold, Sphalerite","Pyrite, Pyrrhotite, Quartz","Underground","","","Siltstone",""
"502","Tomboy Prospect",60.88622,-148.38676,NA,"United States","","M","Gold","","Lead","Unknown","Vein","S","Past Producer","Galena, Gold","Limonite, Quartz","","","","Siltstone",""
