"","site_name","latitude","longitude","region","country","county","com_type","commod1","commod2","commod3","oper_type","dep_type","prod_size","dev_stat","ore","gangue","work_type","names","ore_ctrl","hrock_type","arock_type"
"1","Page Lead Mine",31.97846,-109.28036,NA,"United States","Cochise","M","Lead","","","Unknown","Unknown","S","Producer","","","","","","",""
"2","Page Lead Mine",31.97846,-109.28036,NA,"United States","Cochise","M","Zinc","","","Unknown","Unknown","S","Producer","","","","","","",""
"3","Aurora Mine",35.40945,-114.18136,NA,"United States","Mohave","M","Lead","Silver","","Unknown","Vein","S","Past Producer","Vanadinite","","Surface/Underground","","","Granite","Granite"
"4","Palmer Property",33.13342,-111.00068,NA,"United States","Pinal","M","Zinc","","","Unknown","","N","Occurrence","","","","","","",""
"5","Palmer Property",33.13342,-111.00068,NA,"United States","Pinal","M","Copper","","","Unknown","","N","Occurrence","","","","","","",""
"6","Palmer Property",33.13342,-111.00068,NA,"United States","Pinal","M","Lead","","","Unknown","","N","Occurrence","","","","","","",""
"7","C and B Group Bywater Mine?",33.11676,-110.90069,NA,"United States","Pinal","M","Copper","","","Unknown","","S","Producer","","","","","","Limestone",""
"8","C and B Group Bywater Mine?",33.11676,-110.90069,NA,"United States","Pinal","M","Lead","","","Unknown","","S","Producer","","","","","","Limestone",""
"9","C and B Group Bywater Mine?",33.11676,-110.90069,NA,"United States","Pinal","M","Zinc","","","Unknown","","S","Producer","","","","","","Limestone",""
"10","Telluride Chief  Mine",35.10919,-113.81162,NA,"United States","Mohave","M","Gold","Tungsten, Molybdenum","Copper, Zinc","Unknown","Vein","S","Past Producer","Galena, Gold, Huebnerite, Molybdenite, Pyrite, Scheelite, Silver, Sphalerite, Wolframite","","Underground","Standard Minerals, Telluride 1-9, Gold Mountain, Garnier No. 1, Si Lver Hill, Helen, Madolini & Margarent","In Quartz Veins In Fussures. Prominent System Strikes N30w, Dip Sw,  Other Strikes Ne, Dips Se","Quartz Monzonite","Pegmatite"
"11","Sugarloaf Prospect",33.63423,-114.31607,NA,"United States","La Paz","M","Aluminum","Lead, Molybdenum, Bismuth, Tungsten, Tin","","Unknown","","N","Occurrence","Alunite, Natroalunite","Hematite, Pyrite","","Sugar Loaf, Sugarloaf Butte Alunite, Sugarloaf Peak","","Dacite",""
"12","Royal and Deer Horn",31.37042,-110.6815,NA,"United States","Santa Cruz","M","Lead","","","Unknown","","S","Producer","Chalcopyrite, Galena, Sphalerite","","","","","Limestone",""
"13","Royal and Deer Horn",31.37042,-110.6815,NA,"United States","Santa Cruz","M","Copper","","","Unknown","","S","Producer","Chalcopyrite, Galena, Sphalerite","","","","","Limestone",""
"14","Royal and Deer Horn",31.37042,-110.6815,NA,"United States","Santa Cruz","M","Zinc","","","Unknown","","S","Producer","Chalcopyrite, Galena, Sphalerite","","","","","Limestone",""
"15","Question Lode - Gunbolt  Prospect",33.7834,-112.33407,NA,"United States","Maricopa","M","Lead","Silver, Copper, Gold","Zinc","Unknown","","S","Past Producer","Pyrite","Quartz","","","","Andesite",""
"16","Katchina Group",31.75013,-110.75068,NA,"United States","Pima","M","Copper","","","Unknown","","S","Producer","Malachite","","","","","Limestone",""
"17","Star No. 1 Mine",31.84402,-110.37011,NA,"United States","Cochise","M","Uranium","","Gold","Unknown","Contact Metamorphic","S","Producer","Gold","","","Bluestone","","Granite","Granite"
"18","Blue Knob Nos 30, 31, 32 Prospects",33.61396,-112.84881,NA,"United States","Maricopa","M","Copper","","","Unknown","","N","Occurrence","Chrysocolla, Malachite","","","","","Rhyolite",""
"19","Blue Knob Nos 30, 31, 32 Prospects",33.61396,-112.84881,NA,"United States","Maricopa","M","Iron","","","Unknown","","N","Occurrence","Chrysocolla, Malachite","","","","","Rhyolite",""
"20","Blue Knob Nos 30, 31, 32 Prospects",33.61396,-112.84881,NA,"United States","Maricopa","M","Gold","","","Unknown","","N","Occurrence","Chrysocolla, Malachite","","","","","Rhyolite",""
"21","Bowie Claims",32.10013,-109.41731,NA,"United States","Cochise","M","Zinc","","","Unknown","","N","Occurrence","Galena, Sphalerite, Tetrahedrite","","","","","Quartzite",""
"22","Rainbow Silver Mine",33.14203,-111.20764,NA,"United States","Pinal","M","Copper","","","Unknown","Vein","S","Producer","Chalcopyrite, Galena, Tetrahedrite","","","","","Diabase,Schist",""
"23","Rainbow Silver Mine",33.14203,-111.20764,NA,"United States","Pinal","M","Lead","","","Unknown","Vein","S","Producer","Chalcopyrite, Galena, Tetrahedrite","","","","","Diabase,Schist",""
"24","Mohave Butte Shaft",35.17502,-114.43414,NA,"United States","Mohave","M","Gold","","","Unknown","","S","Past Producer","Gold, Hematite","Fluorite","","","","Andesite",""
"25","Copper Head Mine",34.61671,-113.628,NA,"United States","Mohave","M","Copper","Zinc","","Unknown","","M","Past Producer","Chalcopyrite, Galena, Sphalerite","","","","","Gneiss,Pegmatite,Granite",""
"26","Copper Head Mine",34.61671,-113.628,NA,"United States","Mohave","M","Lead","Zinc","","Unknown","","M","Past Producer","Chalcopyrite, Galena, Sphalerite","","","","","Gneiss,Pegmatite,Granite",""
"27","Triples Or Copper King",34.38338,-112.46742,NA,"United States","Yavapai","M","Copper","","","Unknown","","S","Producer","Chalcopyrite","","","","","Mica Schist,Rhyolite,Andesite",""
"28","Tennessee - Schuykill",35.41668,-114.18413,NA,"United States","Mohave","M","Copper","","","Unknown","","L","Producer","Cerargyrite, Chalcocite, Malachite","","","","","Granite",""
"29","Tennessee - Schuykill",35.41668,-114.18413,NA,"United States","Mohave","M","Zinc","","","Unknown","","L","Producer","Cerargyrite, Chalcocite, Malachite","","","","","Granite",""
"30","Kansas - New York Mine",31.40014,-110.71734,NA,"United States","Santa Cruz","M","Lead","","","Unknown","","M","Producer","Sphalerite","","","","","Quartzite,Limestone",""
"31","Kansas - New York Mine",31.40014,-110.71734,NA,"United States","Santa Cruz","M","Zinc","","","Unknown","","M","Producer","Sphalerite","","","","","Quartzite,Limestone",""
"32","Evelyn",34.53337,-114.16746,NA,"United States","Mohave","M","Gold","","","Unknown","","S","Past Producer","Scheelite","","","Includes Little Maud, Gold Crown","Fracture Zones","Gneiss",""
"33","Costello Claims",31.75013,-109.83398,NA,"United States","Cochise","M","Lead","","","Unknown","Replacement","S","Producer","Smithsonite","","","","","Limestone",""
"34","Costello Claims",31.75013,-109.83398,NA,"United States","Cochise","M","Zinc","","","Unknown","Replacement","S","Producer","Smithsonite","","","","","Limestone",""
"35","Costello Claims",31.75013,-109.83398,NA,"United States","Cochise","M","Copper","","","Unknown","Replacement","S","Producer","Smithsonite","","","","","Limestone",""
"36","Copper House Mine",36.1975,-113.43301,NA,"United States","Mohave","M","Copper","","","Unknown","","N","Occurrence","Malachite","","","","","Limestone",""
"37","Irene Vein, Old Doughboy",33.48341,-110.76736,NA,"United States","Gila","M","Lead","","","Unknown","","S","Producer","Galena, Hemimorphite, Smithsonite, Sphalerite, Willemite","","","","","Diabase,Quartzite","Diabase"
"38","Irene Vein, Old Doughboy",33.48341,-110.76736,NA,"United States","Gila","M","Zinc","","","Unknown","","S","Producer","Galena, Hemimorphite, Smithsonite, Sphalerite, Willemite","","","","","Diabase,Quartzite","Diabase"
"39","Gran Copper",33.11287,-111.04987,NA,"United States","Pinal","M","Copper","","Zinc, Lead","Unknown","","N","Occurrence","Chalcocite, Chrysocolla","","","Black Copper Group","","Granite",""
"40","Emerald Isle Deposit",35.36669,-114.2008,NA,"United States","Mohave","M","Copper","","","Unknown","","M","Producer","Chrysocolla","","","","","Conglomerate",""
"41","Bullis - Sandsman Group",33.00011,-110.16734,NA,"United States","Graham","M","Lead","Zinc, Silver","","Unknown","","S","Past Producer","Anglesite, Galena","","","","","Quartzite,Limestone","Rhyolite"
"42","Antler Mine",34.8667,-113.86746,NA,"United States","Mohave","M","Copper","Lead, Silver","","Unknown","","M","Past Producer","Chalcanthite, Chalcopyrite, Covellite, Galena, Magnetite, Malachite, Marmatite, Pyrite, Pyrrhotite, Sphalerite","Anthophyllite, Mica, Quartz, Tremolite","","","Faulting","Schist,Pegmatite,Granite",""
"43","Antler Mine",34.8667,-113.86746,NA,"United States","Mohave","M","Zinc","Lead, Silver","","Unknown","","M","Past Producer","Chalcanthite, Chalcopyrite, Covellite, Galena, Magnetite, Malachite, Marmatite, Pyrite, Pyrrhotite, Sphalerite","Anthophyllite, Mica, Quartz, Tremolite","","","Faulting","Schist,Pegmatite,Granite",""
"44","Santa Catalina Copper Deposit",32.49178,-110.75068,NA,"United States","Pima","M","Lead","","","Unknown","","M","Producer","Bornite, Chalcopyrite","","","","","Quartzite",""
"45","Santa Catalina Copper Deposit",32.49178,-110.75068,NA,"United States","Pima","M","Copper","","","Unknown","","M","Producer","Bornite, Chalcopyrite","","","","","Quartzite",""
"46","Standard Copper Prospect",34.05006,-112.51741,NA,"United States","Yavapai","M","Copper","","","Unknown","","S","Producer","Chrysocolla","","","","","Granite",""
"47","Shannon Copper Belle Mine",31.75013,-109.85065,NA,"United States","Cochise","M","Copper","","","Unknown","","M","Producer","Bornite, Chalcopyrite, Cuprite, Galena","","","","","Quartzite,Limestone",""
"48","Shannon Copper Belle Mine",31.75013,-109.85065,NA,"United States","Cochise","M","Lead","","","Unknown","","M","Producer","Bornite, Chalcopyrite, Cuprite, Galena","","","","","Quartzite,Limestone",""
"49","San Juan Mine",31.88291,-109.98344,NA,"United States","Cochise","M","Zinc","Lead, Silver","Bismuth, Beryllium, Lithium, Gallium, Cadmium","Unknown","","M","Past Producer","Galena, Sphalerite","Calcite, Epidote, Garnet","Underground","Gordon Mine, San Juan Group","","Limestone",""
"50","Twentieth Century Mine",33.26676,-110.91736,NA,"United States","Gila","M","Zinc","","","Unknown","","N","Occurrence","Galena, Huebnerite, Sphalerite","","","","","Schist","Diorite"
"51","Twentieth Century Mine",33.26676,-110.91736,NA,"United States","Gila","M","Lead","","","Unknown","","N","Occurrence","Galena, Huebnerite, Sphalerite","","","","","Schist","Diorite"
"52","Dixie Copper Mine",33.66674,-111.76739,NA,"United States","Maricopa","M","Copper","","","Unknown","","S","Past Producer","Chalcopyrite","","","","","Schist",""
"53","Bonanza",33.92727,-113.58799,NA,"United States","La Paz","M","Copper","","Tungsten, Molybdenum, Lead","Unknown","","S","Past Producer","Chalcocite, Chalcopyrite","","","","","Schist",""
"54","Tungsten No. 1 Mine",33.37091,-110.88402,NA,"United States","Gila","M","Lead","","","Unknown","","N","Occurrence","Galena, Scheelite","","","","","Diabase",""
"55","Compensation",32.76955,-109.26175,NA,"United States","Greenlee","M","Gold","","","Unknown","","N","Occurrence","Argentite","","","","","",""
"56","Sol Mine",32.80289,-109.54509,NA,"United States","Graham","M","Copper","","","Unknown","","N","Occurrence","Chalcopyrite","","","","","Monzonite,Andesite",""
"57","Ben Hur",32.95982,-109.63122,NA,"United States","Graham","M","Copper","","","Unknown","Vein","U","Occurrence","Chrysocolla","","","","Shear Zone, (N75e, 80s), Along Contact","Andesite","Mafic Intrusive Rock,Andesite"
"58","Commerce",32.92511,-109.0812,NA,"United States","Greenlee","M","Copper","","","Unknown","","N","Occurrence","Chrysocolla","","","Mayflower","","Volcanic Rock (Aphanitic)",""
"59","Pluto Group",32.71539,-109.47565,NA,"United States","Graham","M","Uranium","","","Unknown","","N","Occurrence","Carnotite","","","","","Clay, Mud,Tuff",""
"60","Red Bird Mine",32.13762,-109.9701,NA,"United States","Cochise","M","Silica","","","Unknown","Vein","S","Past Producer","Gold, Quartz","","","Gold Coin","","Shale,Siltstone,Sandstone,Conglomerate",""
"61","Red Bird Mine",32.13762,-109.9701,NA,"United States","Cochise","M","Gold","","","Unknown","Vein","S","Past Producer","Gold, Quartz","","","Gold Coin","","Shale,Siltstone,Sandstone,Conglomerate",""
"62","Best Claim",32.79039,-109.55898,NA,"United States","Graham","M","Uranium","","","Unknown","","N","Prospect","","","","","","Granite","Granite"
"63","Name Unknown",32.62928,-109.90344,NA,"United States","Graham","M","Gold","","","Unknown","Vein","N","Occurrence","","Quartz","","","","Gneiss","Gneiss"
"64","Name Unknown",32.46122,-109.8201,NA,"United States","Graham","M","Copper","","","Unknown","Vein","N","Occurrence","","","Underground","","","Volcanic Rock (Aphanitic)","Volcanic Rock (Aphanitic)"
"65","Casey Copper Prospect",32.22095,-109.64509,NA,"United States","Cochise","M","Copper","","","Unknown","Replacement","N","Occurrence","Chalcopyrite","","","","","Limestone","Volcanic Rock (Aphanitic)"
"66","Gold Farm Claim",32.23762,-109.60482,NA,"United States","Cochise","M","Gold","Lead","","Unknown","Vein","Y","Past Producer","Galena, Pyrite","Quartz","","","","Granite","Plutonic Rock,Granite"
"67","Sunrise Prospect",32.24734,-109.57565,NA,"United States","Cochise","M","Gold","","","Unknown","Vein","N","Occurrence","Gold","Quartz","","","","Granite","Granite"
"68","Gold Ridge Mine",32.19734,-109.60343,NA,"United States","Cochise","M","Gold","Copper","","Unknown","Vein","S","Past Producer","Chalcopyrite, Galena, Pyrite","Quartz","","Casey, Juniper","Veins Along Fault Separating Limestone And Shale From Granite","Shale,Limestone,Granite","Granite"
"69","Gold Ridge Mine",32.19734,-109.60343,NA,"United States","Cochise","M","Lead","Copper","","Unknown","Vein","S","Past Producer","Chalcopyrite, Galena, Pyrite","Quartz","","Casey, Juniper","Veins Along Fault Separating Limestone And Shale From Granite","Shale,Limestone,Granite","Granite"
"70","Howell Mine",32.23206,-109.56454,NA,"United States","Cochise","M","Gold","Lead","","Unknown","Vein","S","Past Producer","Galena, Pyrite","Chlorite","","","","Granite","Granite"
"71","Name Unknown",32.07652,-109.36592,NA,"United States","Cochise","M","Copper","","","Unknown","Vein","S","Past Producer","","Pyrite, Quartz","","","Quartz Vein In Shear Zone","Granite","Granite"
"72","Valley View Claims",32.28345,-109.67565,NA,"United States","Cochise","M","Uranium","","","Unknown","","N","Occurrence","","Quartz","","","","Granite","Granite"
"73","Spike-E Hills Prospect",32.30845,-109.82149,NA,"United States","Cochise","M","Copper","","","Unknown","","N","Occurrence","Chalcopyrite","Pyrite","","","","Schist",""
"74","Dos Cabezas Placers",32.18345,-109.59648,NA,"United States","Cochise","M","Gold","","","Unknown","","S","Past Producer","Gold","","","","","Gravel,Alluvium",""
"75","Canuk Group",32.71817,-109.44787,NA,"United States","Graham","M","Uranium","","","Unknown","","N","Occurrence","Carnotite","","","","","Clay, Mud,Tuff",""
"76","Florence",34.50005,-112.35074,NA,"United States","Yavapai","M","Copper","","","Unknown","","N","Occurrence","","","","","","",""
"77","Green Monster Mine",32.63288,-111.3957,NA,"United States","Pinal","M","Gold","","","Unknown","Unknown","U","Occurrence","","","","","","",""
"78","Green Monster Mine",32.63288,-111.3957,NA,"United States","Pinal","M","Copper","","","Unknown","Unknown","U","Occurrence","","","","","","",""
"79","Silica Occurrence",33.53757,-112.01323,NA,"United States","Maricopa","M","Silica","","","Unknown","","N","Occurrence","Quartz","","","","","Schist",""
"80","Copperopolis Mine",31.96346,-109.26203,NA,"United States","Cochise","M","Gold","","","Unknown","Unknown","N","Occurrence","","","","","","Limestone,Rhyolite",""
"81","Copperopolis Mine",31.96346,-109.26203,NA,"United States","Cochise","M","Copper","","","Unknown","Unknown","N","Occurrence","","","","","","Limestone,Rhyolite",""
"82","Copper Ledge Mine",32.35343,-112.83907,NA,"United States","Pima","M","Copper","","","Unknown","","S","Producer","","","Underground","","","Alluvium",""
"83","Reagan Camp Prospects",33.05426,-110.81208,NA,"United States","Gila","M","Lead","","","Unknown","Vein","S","Producer","","","","","","Limestone","Porphyry"
"84","Mex Hill Mine",33.86451,-111.89072,NA,"United States","Maricopa","M","Gold","Silver","","Unknown","Vein","S","Past Producer","Copper","","Underground","Mexican Hill Mine","","Slate,Schist","Rhyolite"
"85","Mex Hill Mine",33.86451,-111.89072,NA,"United States","Maricopa","M","Copper","Silver","","Unknown","Vein","S","Past Producer","Copper","","Underground","Mexican Hill Mine","","Slate,Schist","Rhyolite"
"86","Copper Dike Group",33.00566,-110.35679,NA,"United States","Graham","M","Copper","","","Unknown","","N","Occurrence","","","","","","Andesite","Granite"
"87","Mingus Mountain Copper Prospect",34.63672,-112.1388,NA,"United States","Yavapai","M","Copper","","","Unknown","Vein","N","Occurrence","Chalcopyrite, Pyrite","","Underground","","","Schist",""
"88","Mingus Mountain Copper Prospect",34.63672,-112.1388,NA,"United States","Yavapai","M","Gold","","","Unknown","Vein","N","Occurrence","Chalcopyrite, Pyrite","","Underground","","","Schist",""
"89","Pomona Mine",32.58899,-112.12961,NA,"United States","Pinal","M","Lead","Vanadium, Gold","Molybdenum, Zinc","Unknown","Vein","S","Past Producer","","","","","","Limestone","Rhyolite"
"90","Silver Lake Mine",32.55621,-112.12044,NA,"United States","Pinal","M","Zinc","Copper, Gold","","Unknown","","S","Past Producer","Smithsonite","","","","","Limestone",""
"91","Silver Lake Mine",32.55621,-112.12044,NA,"United States","Pinal","M","Lead","Copper, Gold","","Unknown","","S","Past Producer","Smithsonite","","","","","Limestone",""
"92","Man's Dream Mine",32.22011,-112.17655,NA,"United States","Pima","M","Copper","Silver","","Unknown","","S","Producer","Copper","","","Calloway","Along Fractures In Shear Zone","Rhyolite",""
"93","Brownell Mine",32.24817,-112.13933,NA,"United States","Pima","M","Copper","Gold","","Unknown","","S","Producer","Copper, Hematite, Pyrite","","Underground","Century-Chief, Index Groups, Dandy","Fractures In Mesozoic Rocks, At Or Near Contact Of Rhyolite And Andesite","Rhyolite","Granite"
"94","Weldon Mine",32.06289,-112.15183,NA,"United States","Pima","M","Gold","Lead, Copper, Zinc","","Unknown","","S","Producer","","Hematite, Quartz","","","","Andesite,Granite",""
"95","Silver Bullion Mine",32.19539,-112.11933,NA,"United States","Pima","M","Lead","Zinc, Gold","Uranium, Molybdenum","Unknown","","S","Past Producer","Argentite, Chalcopyrite, Galena, Malachite, Pyrite, Silver, Sphalerite","Calcite, Hematite","Surface/Underground","Black Prince Mine?","Ore Along Contact Of Gneiss And Schist With Limestone. Numerous Pyr Ometosomatic Dikes","Gneiss","Quartz Monzonite"
"96","Silver Bullion Mine",32.19539,-112.11933,NA,"United States","Pima","M","Copper","Zinc, Gold","Uranium, Molybdenum","Unknown","","S","Past Producer","Argentite, Chalcopyrite, Galena, Malachite, Pyrite, Silver, Sphalerite","Calcite, Hematite","Surface/Underground","Black Prince Mine?","Ore Along Contact Of Gneiss And Schist With Limestone. Numerous Pyr Ometosomatic Dikes","Gneiss","Quartz Monzonite"
"97","Horseshoe Placers",32.09233,-112.1135,NA,"United States","Pima","M","Gold","Silver","","Unknown","","S","Producer","Gold, Silver","","","Quijotoa, Golconda","Placer Gold And Silver Resting On Caliche-Cemented Gravel.","Gravel,Alluvium",""
"98","Linda Lee Claims",32.13011,-112.12766,NA,"United States","Pima","M","Gold","","Uranium","Unknown","","S","Producer","Gold, Torbernite","","Surface/Underground","","","Arkose","Granite"
"99","Papago Mine",32.09511,-113.26047,NA,"United States","Pima","M","Gold","Silver, Copper","REE, Thorium","Unknown","","S","Producer","","","","","Weak And Spotty, Yet Some Enriched Gold Values Near The Surface","Gneiss,Granite","Mafic Intrusive Rock,Pegmatite"
"100","Ajo Placers",32.35871,-112.85518,NA,"United States","Pima","M","Gold","","","Unknown","Placer","S","Producer","Gold","","","","","Gravel","Quartz Monzonite"
"101","Tom Wade Mine",34.052,-112.26157,NA,"United States","Yavapai","M","Gold","Lead, Copper","Tungsten","Unknown","Vein","S","Producer","Gold, Silver, Wolframite","Pyrite, Quartz","","4th of July Group","Faulting, Shearing","Quartz Monzonite","Rhyolite"
"102","Corona Group",32.00873,-111.82377,NA,"United States","Pima","M","Gold","","","Unknown","Vein","S","Producer","Gold, Pyrite","","Underground","","","Diorite,Slate","Diorite"
"103","Victoria Mine",31.93955,-112.83823,NA,"United States","Pima","M","Lead","Copper, Gold, Zinc","","Unknown","","S","Producer","Argentite","","","La Americana","","Schist","Granite"
"104","Lucky Strike",33.18841,-111.64321,NA,"United States","Pinal","M","Gold","","","Unknown","Unknown","N","Occurrence","","","","","","",""
"105","Copper King Mine",31.89873,-111.06041,NA,"United States","Pima","M","Zinc","Lead, Silver, Gold","","Unknown","","S","Producer","Copper","","Underground","","Commercial Mineralization Apparently Was Limited To The Marble.","Limestone","Granite"
"106","Copper King Mine",31.89873,-111.06041,NA,"United States","Pima","M","Copper","Lead, Silver, Gold","","Unknown","","S","Producer","Copper","","Underground","","Commercial Mineralization Apparently Was Limited To The Marble.","Limestone","Granite"
"107","Marconi Mine",31.88068,-111.07041,NA,"United States","Pima","M","Zinc","Gold, Copper","","Unknown","","S","Producer","","","","","Mineralization Along Fracture Zones.","Arkose","Granite"
"108","Marconi Mine",31.88068,-111.07041,NA,"United States","Pima","M","Lead","Gold, Copper","","Unknown","","S","Producer","","","","","Mineralization Along Fracture Zones.","Arkose","Granite"
"109","Cowboy Mine",31.87234,-111.15652,NA,"United States","Pima","M","Copper","Silver","Lead, Zinc, Molybdenum","Unknown","","S","Past Producer","Copper","Pyrite","","","Fault Zone In The Granitics","Diorite","Diorite"
"110","Crown King & Tiger Mine Groups",31.86262,-111.10652,NA,"United States","Pima","M","Lead","Zinc, Gold","Molybdenum","Unknown","","S","Past Producer","Chalcopyrite, Galena, Pyrite, Sphalerite","Calcite","","Sneider Group, Esperanza Mine Group Old, Snyder","Veins Along Faults And Fractures In Sedimentary - Volcanic Formations.","Volcanic Rock (Aphanitic)","Quartz Monzonite,Diorite,Andesite"
"111","Crown King & Tiger Mine Groups",31.86262,-111.10652,NA,"United States","Pima","M","Copper","Zinc, Gold","Molybdenum","Unknown","","S","Past Producer","Chalcopyrite, Galena, Pyrite, Sphalerite","Calcite","","Sneider Group, Esperanza Mine Group Old, Snyder","Veins Along Faults And Fractures In Sedimentary - Volcanic Formations.","Volcanic Rock (Aphanitic)","Quartz Monzonite,Diorite,Andesite"
"112","High Hill Mine",31.84901,-111.14763,NA,"United States","Pima","M","Lead","Gold","","Unknown","","S","Producer","","","","Twin Buttes","","Diorite","Diorite"
"113","High Hill Mine",31.84901,-111.14763,NA,"United States","Pima","M","Zinc","Gold","","Unknown","","S","Producer","","","","Twin Buttes","","Diorite","Diorite"
"114","High Hill Mine",31.84901,-111.14763,NA,"United States","Pima","M","Copper","Gold","","Unknown","","S","Producer","","","","Twin Buttes","","Diorite","Diorite"
"115","Bonanza Mine",32.00262,-111.51181,NA,"United States","Pima","M","Copper","Gold, Silver, Tungsten, Molybdenum, Zinc","","Unknown","","S","Past Producer","Bornite, Chalcocite, Chalcopyrite, Chrysocolla, Covellite, Malachite, Molybdenite, Pyrite, Scheelite, Sphalerite","Barite, Diopside, Epidote, Garnet, Magnetite","","Srk, Mitchell, Calvillo, Kerr","Contact Of Limestone And Igneous Rocks","Sandstone,Limestone","Pegmatite"
"116","Whitcomb Mine",31.96595,-111.09236,NA,"United States","Pima","M","Lead","Gold","","Unknown","","S","Producer","","","","","","Volcanic Rock (Aphanitic)","Granite"
"117","Whitcomb Mine",31.96595,-111.09236,NA,"United States","Pima","M","Copper","Gold","","Unknown","","S","Producer","","","","","","Volcanic Rock (Aphanitic)","Granite"
"118","Whitcomb Mine",31.96595,-111.09236,NA,"United States","Pima","M","Zinc","Gold","","Unknown","","S","Producer","","","","","","Volcanic Rock (Aphanitic)","Granite"
"119","Silver Helmet Mine",31.96484,-111.07902,NA,"United States","Pima","M","Lead","Copper, Gold","","Unknown","","S","Producer","Copper","","","","Along Fault Contact Of Limestone And Sedimentary Beds.","Limestone","Granite"
"120","Silver Lead Mine Group",32.43789,-111.53903,NA,"United States","Pima","M","Copper","","","Unknown","","S","Producer","","","","","","Limestone","Granite"
"121","Silver Lead Mine Group",32.43789,-111.53903,NA,"United States","Pima","M","Lead","","","Unknown","","S","Producer","","","","","","Limestone","Granite"
"122","Silver Lead Mine Group",32.43789,-111.53903,NA,"United States","Pima","M","Zinc","","","Unknown","","S","Producer","","","","","","Limestone","Granite"
"123","Copper Plate Mine",31.76791,-110.46345,NA,"United States","Pima","M","Copper","","","Unknown","Replacement","S","Past Producer","Quartz","","","","Ore Found As Oxidized Copper In Porous Sandstone","Shale,Siltstone,Arkose,Conglomerate","Rhyodacite"
"124","Copper Plate Mine",31.76791,-110.46345,NA,"United States","Pima","M","Silica","","","Unknown","Replacement","S","Past Producer","Quartz","","","","Ore Found As Oxidized Copper In Porous Sandstone","Shale,Siltstone,Arkose,Conglomerate","Rhyodacite"
"125","Falls Claim",31.83902,-110.76346,NA,"United States","Pima","M","Copper","Silver","","Unknown","","S","Past Producer","Copper","","","","","Limestone",""
"126","Annie Mine",31.37736,-110.70095,NA,"United States","Santa Cruz","M","Zinc","Gold, Silver, Copper","","Unknown","","S","Past Producer","Chalcopyrite, Galena, Gold, Sphalerite","","","","","Limestone",""
"127","Annie Mine",31.37736,-110.70095,NA,"United States","Santa Cruz","M","Lead","Gold, Silver, Copper","","Unknown","","S","Past Producer","Chalcopyrite, Galena, Gold, Sphalerite","","","","","Limestone",""
"128","Copper Mountain Mine",31.44514,-111.25569,NA,"United States","Santa Cruz","M","Copper","","","Unknown","","S","Past Producer","","","","Anaconda Mine Group See Record No. M000596, Armada","","",""
"129","Blue Lead Mine",31.56235,-110.81512,NA,"United States","Santa Cruz","M","Lead","Gold","","Unknown","","S","Past Producer","Chalcopyrite, Gold","","","","","Diorite",""
"130","Blue Lead Mine",31.56235,-110.81512,NA,"United States","Santa Cruz","M","Copper","Gold","","Unknown","","S","Past Producer","Chalcopyrite, Gold","","","","","Diorite",""
"131","Crown Claims Nos. 1 & 2",31.93373,-110.74596,NA,"United States","Pima","M","Lead","Copper","","Unknown","","S","Producer","","","","","","Quartz Monzonite","Quartz Monzonite"
"132","Crown Claims Nos. 1 & 2",31.93373,-110.74596,NA,"United States","Pima","M","Zinc","Copper","","Unknown","","S","Producer","","","","","","Quartz Monzonite","Quartz Monzonite"
"133","Genie No. 1 Claim",31.88345,-111.23597,NA,"United States","Pima","M","Uranium","","","Unknown","","N","Occurrence","","","","","","Granite",""
"134","Lena No. 1 - 11 Claims",31.88456,-111.24125,NA,"United States","Pima","M","Uranium","Zinc, Copper, Lead","","Unknown","","N","Occurrence","Chalcopyrite, Galena, Pitchblende, Pyrite, Sphalerite","Magnetite","Surface/Underground","","","Granite","Granite"
"135","Blow Out Mine",31.94123,-110.71512,NA,"United States","Pima","M","Copper","","","Unknown","","S","Producer","Chalcopyrite, Chrysocolla, Magnetite, Malachite, Pyrite","","","","Fault And Fracture Intersections.","Limestone","Granite"
"136","Comstock Mine Group",31.76096,-110.7704,NA,"United States","Pima","M","Lead","Copper, Silver, Gold","","Unknown","","S","Past Producer","Lead","","","Arizona Comstock Lode","","Volcanic Rock (Aphanitic)","Quartz Latite"
"137","Brown Bird Mine Group",31.45624,-111.25319,NA,"United States","Santa Cruz","M","Gold","Copper","Lead, Zinc","Unknown","","S","Past Producer","Gold, Silver","","","Blue Wing","Contact Zone","Quartz Latite",""
"138","Collicello and Luray Mine Groups",31.46542,-110.76901,NA,"United States","Santa Cruz","M","Copper","Gold","","Unknown","","S","Past Producer","Chalcocite, Chalcopyrite, Covellite, Gold","Pyrite","","","","Granite",""
"139","Commodore Mine",31.41125,-111.25319,NA,"United States","Santa Cruz","M","Gold","Lead, Copper","Zinc","Unknown","","S","Past Producer","Gold, Silver","","","","","Granite",""
"140","Cramer Mine",31.42486,-111.23625,NA,"United States","Santa Cruz","M","Gold","Copper","Iron, Manganese","Unknown","","S","Past Producer","Gold, Iron, Silver","","","Nevada","","Tuff",""
"141","Double Standard Mine",31.37514,-110.70539,NA,"United States","Santa Cruz","M","Lead","Gold","","Unknown","","S","Past Producer","Chalcopyrite, Galena, Gold, Sphalerite","","","","","Limestone",""
"142","Double Standard Mine",31.37514,-110.70539,NA,"United States","Santa Cruz","M","Copper","Gold","","Unknown","","S","Past Producer","Chalcopyrite, Galena, Gold, Sphalerite","","","","","Limestone",""
"143","Double Standard Mine",31.37514,-110.70539,NA,"United States","Santa Cruz","M","Zinc","Gold","","Unknown","","S","Past Producer","Chalcopyrite, Galena, Gold, Sphalerite","","","","","Limestone",""
"144","Durham Copper Claims",31.51931,-110.65317,NA,"United States","Santa Cruz","M","Copper","Gold","","Unknown","","S","Past Producer","Gold, Silver","","","","","Volcanic Rock (Aphanitic)","Volcanic Rock (Aphanitic)"
"145","Arrastra Mine",31.79957,-110.76929,NA,"United States","Pima","M","Gold","Lead, Silver, Copper","","Unknown","Vein","S","Past Producer","Chalcopyrite, Galena, Pyrite","","","","Vein Borders Contact Of Granodiorite With Quartz Latite.","Diorite","Quartz Latite"
"146","Owl Head Mine",32.76454,-111.14737,NA,"United States","Pinal","M","Copper","","","Unknown","Unknown","S","Past Producer","Copper","","","","","Schist",""
"147","European Mine Group",31.46542,-110.76374,NA,"United States","Santa Cruz","M","Copper","Gold","Lead, Zinc","Unknown","","S","Past Producer","Chalcopyrite, Gold","Pyrite, Quartz","","Buena Vista Group","","Granite",""
"148","Justice Mine",31.8743,-110.64179,NA,"United States","Pima","M","Lead","Copper, Gold, Zinc","","Unknown","Replacement","S","Producer","","","","Red Top, La Plata","","Limestone","Diorite"
"149","New Colorado Mine",31.6893,-111.33847,NA,"United States","Pima","M","Gold","Zinc","Mercury","Unknown","","S","Producer","Cinnabar, Copper, Freibergite","","","","","Andesite",""
"150","New Colorado Mine",31.6893,-111.33847,NA,"United States","Pima","M","Lead","Zinc","Mercury","Unknown","","S","Producer","Cinnabar, Copper, Freibergite","","","","","Andesite",""
"151","New Colorado Mine",31.6893,-111.33847,NA,"United States","Pima","M","Copper","Zinc","Mercury","Unknown","","S","Producer","Cinnabar, Copper, Freibergite","","","","","Andesite",""
"152","Silver Queen Mine",32.0665,-111.93738,NA,"United States","Pima","M","Copper","Gold, Lead","","Unknown","Vein","S","Producer","Chalcopyrite, Galena, Pyrite","","","","Ruby Silver Occurred In The Oxidized Zone.","Andesite",""
"153","Florida Mine",31.61263,-110.86374,NA,"United States","Santa Cruz","M","Copper","Gold","","Unknown","Vein","S","Past Producer","Chalcopyrite, Gold","Pyrite","","Part of the Alto Group?","","Arkose,Rhyodacite",""
"154","Florida Mine",31.61263,-110.86374,NA,"United States","Santa Cruz","M","Lead","Gold","","Unknown","Vein","S","Past Producer","Chalcopyrite, Gold","Pyrite","","Part of the Alto Group?","","Arkose,Rhyodacite",""
"155","Frisco Fair Mine Group",31.52153,-110.63734,NA,"United States","Santa Cruz","M","Lead","Copper","","Unknown","","S","Past Producer","Copper","","","Hummer, Apex, Margaret","","Volcanic Rock (Aphanitic),Granite","Volcanic Rock (Aphanitic),Granite"
"156","Hughes and Bales Prospects",33.23342,-111.00069,NA,"United States","Pinal","M","Zinc","","","Unknown","Unknown","S","Past Producer","","","","","","",""
"157","Hughes and Bales Prospects",33.23342,-111.00069,NA,"United States","Pinal","M","Lead","","","Unknown","Unknown","S","Past Producer","","","","","","",""
"158","Hughes and Bales Prospects",33.23342,-111.00069,NA,"United States","Pinal","M","Copper","","","Unknown","Unknown","S","Past Producer","","","","","","",""
"159","Apex Mine",33.1887,-111.01153,NA,"United States","Pinal","M","Copper","","","Unknown","","N","Prospect","","","","Bunker Hill","","Quartzite",""
"160","Honey Bee No. 4 Claim",33.08315,-111.0243,NA,"United States","Pinal","M","Copper","","","Unknown","","N","Occurrence","","","","","","Mafic Intrusive Rock,Plutonic Rock,Granite","Mafic Intrusive Rock,Plutonic Rock,Granite"
"161","Honey Bee No. 4 Claim",33.08315,-111.0243,NA,"United States","Pinal","M","Uranium","","","Unknown","","N","Occurrence","","","","","","Mafic Intrusive Rock,Plutonic Rock,Granite","Mafic Intrusive Rock,Plutonic Rock,Granite"
"162","Gold Hill Mine",31.39875,-110.92762,NA,"United States","Santa Cruz","M","Lead","","Copper","Unknown","","S","Past Producer","","","","","Associated With Dark Pyritized Dikes","Quartz Monzonite",""
"163","Gold Hill Mine",31.39875,-110.92762,NA,"United States","Santa Cruz","M","Gold","","Copper","Unknown","","S","Past Producer","","","","","Associated With Dark Pyritized Dikes","Quartz Monzonite",""
"164","Good Luck Mine",31.69124,-110.92679,NA,"United States","Santa Cruz","M","Gold","","Iron","Unknown","","S","Past Producer","Gold, Pyrite, Silver","","","","Mineralization Probably Controlled By Fractures","Quartz Monzonite",""
"165","Good Luck Mine",31.69124,-110.92679,NA,"United States","Santa Cruz","M","Lead","","Iron","Unknown","","S","Past Producer","Gold, Pyrite, Silver","","","","Mineralization Probably Controlled By Fractures","Quartz Monzonite",""
"166","Madera Prospect",33.33287,-110.89375,NA,"United States","Gila","M","Copper","Molybdenum","","Unknown","","N","Occurrence","Chalcocite, Chalcopyrite, Ferrimolybdite, Molybdenite, Pyrite","","","Ellis Vein","","Schist","Diorite"
"167","Ferrell Mine",33.17065,-110.95569,NA,"United States","Pinal","M","Gold","","","Unknown","","N","Occurrence","Gold","","","","","",""
"168","Columbia Mine",33.14342,-110.86347,NA,"United States","Gila","M","Copper","Gold, Silver","","Unknown","Vein","S","Past Producer","Chalcopyrite, Cuprite, Pyrite","","Underground","","","Limestone","Diorite"
"169","Barbarossa Placer",33.12676,-110.86513,NA,"United States","Gila","M","Gold","","","Unknown","Placer","S","Producer","Gold","","","","","",""
"170","Silver King Mine",32.96842,-110.87125,NA,"United States","Pinal","M","Copper","","","Unknown","","N","Occurrence","Copper","","","","","Granite",""
"171","Mary and James Claims",32.74649,-110.90458,NA,"United States","Pinal","M","Copper","","","Unknown","Unknown","N","Occurrence","","","","","","",""
"172","Mary and James Claims",32.74649,-110.90458,NA,"United States","Pinal","M","Gold","","","Unknown","Unknown","N","Occurrence","","","","","","",""
"173","Canada Del Oro Mine",32.54789,-110.78762,NA,"United States","Pinal","M","Gold","","","Unknown","Placer","S","Past Producer","","","Surface/Underground","Old Hat Placers","Source Of Au:  Quartz Veins In The Vicinity Of Copeland, Kerr, And Metas","Gravel",""
"174","Sun Lode Claim",31.72513,-110.88124,NA,"United States","Pima, Santa Cruz","M","Copper","","","Unknown","Vein","U","Occurrence","Molybdenite","Quartz","","","In Quartz Along Fault & Veins In Diorite","Diorite",""
"175","Jesuit Mine",31.60985,-110.86901,NA,"United States","Santa Cruz","M","Lead","Gold","","Unknown","","S","Past Producer","Chalcopyrite, Galena","Pyrite","","","","Arkose,Rhyodacite",""
"176","Jesuit Mine",31.60985,-110.86901,NA,"United States","Santa Cruz","M","Copper","Gold","","Unknown","","S","Past Producer","Chalcopyrite, Galena","Pyrite","","","","Arkose,Rhyodacite",""
"177","Lucky Ledge Mine",31.71346,-110.86096,NA,"United States","Santa Cruz","M","Gold","","","Unknown","","N","Occurrence","Chalcopyrite, Malachite, Pyrite","Barite, Epidote, Garnet, Limonite, Quartz","","","N-S Trending Veins Associated With Lamprophyric Porphyry Dike In Micaceous Quartz Schist; Coatings On Joint Planes Of Dike And Country Rock","Schist,Plutonic Rock",""
"178","Lucky Ledge Mine",31.71346,-110.86096,NA,"United States","Santa Cruz","M","Copper","","","Unknown","","N","Occurrence","Chalcopyrite, Malachite, Pyrite","Barite, Epidote, Garnet, Limonite, Quartz","","","N-S Trending Veins Associated With Lamprophyric Porphyry Dike In Micaceous Quartz Schist; Coatings On Joint Planes Of Dike And Country Rock","Schist,Plutonic Rock",""
"179","Lee Mine",31.60541,-110.84318,NA,"United States","Santa Cruz","M","Lead","Gold","","Unknown","","S","Past Producer","Chalcopyrite, Gold","Pyrite","","Lee Shaft","","Diorite,Arkose","Diorite"
"180","Lee Mine",31.60541,-110.84318,NA,"United States","Santa Cruz","M","Copper","Gold","","Unknown","","S","Past Producer","Chalcopyrite, Gold","Pyrite","","Lee Shaft","","Diorite,Arkose","Diorite"
"181","Manzanita Mine",31.37514,-110.71678,NA,"United States","Santa Cruz","M","Zinc","","Gold","Unknown","","S","Past Producer","Chalcopyrite, Galena, Gold, Sphalerite","Garnet, Pyrite","","","","Diorite,Limestone","Diorite"
"182","Manzanita Mine",31.37514,-110.71678,NA,"United States","Santa Cruz","M","Lead","","Gold","Unknown","","S","Past Producer","Chalcopyrite, Galena, Gold, Sphalerite","Garnet, Pyrite","","","","Diorite,Limestone","Diorite"
"183","Manzanita Mine",31.37514,-110.71678,NA,"United States","Santa Cruz","M","Copper","","Gold","Unknown","","S","Past Producer","Chalcopyrite, Galena, Gold, Sphalerite","Garnet, Pyrite","","","","Diorite,Limestone","Diorite"
"184","Good Luck Mine",31.46514,-110.70595,NA,"United States","Santa Cruz","M","Gold","","","Unknown","","S","Past Producer","Gold, Silver","Pyrite","","Santa Rita","","Limestone",""
"185","Good Luck Mine",31.46514,-110.70595,NA,"United States","Santa Cruz","M","Lead","","","Unknown","","S","Past Producer","Gold, Silver","Pyrite","","Santa Rita","","Limestone",""
"186","New Hope Mine Group",31.47903,-110.78485,NA,"United States","Santa Cruz","M","Copper","Zinc, Lead, Gold","","Unknown","","S","Past Producer","Chalcopyrite, Galena, Gold, Sphalerite","Pyrite","","Dona Maria Elena","","Clastic Sedimentary Rock",""
"187","Roy Mine",31.41792,-110.73761,NA,"United States","Santa Cruz","M","Copper","Gold","Lead","Unknown","Vein","S","Past Producer","","","","","","Diorite",""
"188","San Antonio Mine",31.37486,-110.69261,NA,"United States","Santa Cruz","M","Zinc","","Gold","Unknown","","S","Past Producer","Chalcopyrite, Galena, Gold, Sphalerite","Pyrite","","Texas Mine? Very Close Location","","Limestone",""
"189","San Antonio Mine",31.37486,-110.69261,NA,"United States","Santa Cruz","M","Lead","","Gold","Unknown","","S","Past Producer","Chalcopyrite, Galena, Gold, Sphalerite","Pyrite","","Texas Mine? Very Close Location","","Limestone",""
"190","San Antonio Mine",31.37486,-110.69261,NA,"United States","Santa Cruz","M","Copper","","Gold","Unknown","","S","Past Producer","Chalcopyrite, Galena, Gold, Sphalerite","Pyrite","","Texas Mine? Very Close Location","","Limestone",""
"191","Sweetwater Mine",31.71791,-110.79068,NA,"United States","Santa Cruz","M","Copper","","","Unknown","","S","Past Producer","","","","","","Volcanic Rock (Aphanitic)",""
"192","Two Brothers Mine",31.39708,-110.92707,NA,"United States","Santa Cruz","M","Gold","Copper","","Unknown","","S","Past Producer","","","","","","Quartz Monzonite,Diorite",""
"193","Two Brothers Mine",31.39708,-110.92707,NA,"United States","Santa Cruz","M","Lead","Copper","","Unknown","","S","Past Producer","","","","","","Quartz Monzonite,Diorite",""
"194","Tyndall Placers  Mine",31.5593,-110.88151,NA,"United States","Santa Cruz","M","Gold","","","Unknown","Placer","S","Past Producer","Gold","","","","","",""
"195","Pool's Mine",33.02953,-110.71152,NA,"United States","Pinal","M","Gold","","","Unknown","","N","Occurrence","Chalcopyrite, Malachite","Calcite, Fluorite, Hematite, Limonite, Pyrite","Surface/Underground","","","Limestone,Andesite","Andesite"
"196","Pool's Mine",33.02953,-110.71152,NA,"United States","Pinal","M","Copper","","","Unknown","","N","Occurrence","Chalcopyrite, Malachite","Calcite, Fluorite, Hematite, Limonite, Pyrite","Surface/Underground","","","Limestone,Andesite","Andesite"
"197","Farmer Mine",31.39542,-110.92735,NA,"United States","Santa Cruz","M","Gold","","","Unknown","","S","Past Producer","","Quartz","","","Lesing Veins In Irregular Shear Zone; Irregular Pockets And Impregnations Of Ore","Quartz Monzonite,Metasedimentary Rock","Plutonic Rock"
"198","Farmer Mine",31.39542,-110.92735,NA,"United States","Santa Cruz","M","Lead","","","Unknown","","S","Past Producer","","Quartz","","","Lesing Veins In Irregular Shear Zone; Irregular Pockets And Impregnations Of Ore","Quartz Monzonite,Metasedimentary Rock","Plutonic Rock"
"199","Farmer Mine",31.39542,-110.92735,NA,"United States","Santa Cruz","M","Copper","","","Unknown","","S","Past Producer","","Quartz","","","Lesing Veins In Irregular Shear Zone; Irregular Pockets And Impregnations Of Ore","Quartz Monzonite,Metasedimentary Rock","Plutonic Rock"
"200","Apache Manganese Mine",33.79368,-110.69569,NA,"United States","Gila","M","Copper","","Silver, Cobalt","Unknown","","S","Past Producer","Erythrite, Psilomelane, Pyrolusite, Wad","","Surface/Underground","","Deposits Occur In Steeply Dipping Fracture Zones That Range In Strike From Nw To Ne.","Gravel","Andesite"
"201","Copper King Or Wylomene",33.18953,-110.61651,NA,"United States","Gila","M","Copper","Iron","","Unknown","Vein","N","Occurrence","Chalcocite, Malachite","","Unknown","","","","Diabase"
"202","Badger Mine",31.99262,-111.82099,NA,"United States","Pima","M","Gold","","","Unknown","","S","Producer","","","Underground","","Along Fracture Zone In Granitics","Granite",""
"203","Iron Claims Mine",33.34509,-110.51485,NA,"United States","Gila","M","Iron","","","Unknown","Replacement","N","Occurrence","","","Unknown","","","Quartzite","Diabase"
"204","Peacock Claims",33.31676,-110.54707,NA,"United States","Gila","M","Copper","","","Unknown","Vein","N","Occurrence","Malachite","","Surface/Underground","","","Granite","Diorite"
"205","Lucky Boy Mine",33.21926,-110.84402,NA,"United States","Gila","M","Uranium","","","Unknown","Vein","S","Past Producer","","","","","","Quartzite","Diabase"
"206","Sky Prospects",33.20037,-110.78986,NA,"United States","Gila","M","Uranium","","","Unknown","Vein","N","Occurrence","Limonite, Malachite, Pyrite","","","","","Quartzite","Diabase"
"207","Premier Group",33.08092,-110.77208,NA,"United States","Gila","M","Gold","","Vanadium, Molybdenum, Lead, Copper, Tungsten, Zinc","Unknown","","S","Past Producer","Anglesite, Copper, Galena, Gold, Vanadinite, Wulfenite","Goethite, Hematite, Jarosite, Jasper, Quartz","Surface/Underground","Santa Montica Camp, Santa Monica Camp","Ore Occurs On S Side Of Nnw Trending Fault; Cu As Veins & Replaceme Nt Bodies Adjacent Gold","Limestone","Rhyodacite"
"208","Chilito Mine",33.0662,-110.79791,NA,"United States","Gila","M","Copper","Gold, Silver, Molybdenum","","Surface-Underground","Porphyry Cu, skarn-related","S","Past Producer","Chalcocite, Chalcopyrite, Molybdenite, Pyrite, Quartzite","Anhydrite","Surface/Underground","Chillito, Velasco Pit ?, Schneider Group","Apache Group Sediments Adjacent To Stock","Diabase,Quartzite,Granodiorite","Diorite,Rhyodacite"
"209","Chilito Mine",33.0662,-110.79791,NA,"United States","Gila","M","Silica","Gold, Silver, Molybdenum","","Surface-Underground","Porphyry Cu, skarn-related","S","Past Producer","Chalcocite, Chalcopyrite, Molybdenite, Pyrite, Quartzite","Anhydrite","Surface/Underground","Chillito, Velasco Pit ?, Schneider Group","Apache Group Sediments Adjacent To Stock","Diabase,Quartzite,Granodiorite","Diorite,Rhyodacite"
"210","Gold-Copper Mines Co.",33.07315,-110.78458,NA,"United States","Gila","M","Gold","","","Unknown","Vein","S","Past Producer","Gold","","","","","Limestone","Andesite"
"211","Gold-Copper Mines Co.",33.07315,-110.78458,NA,"United States","Gila","M","Copper","","","Unknown","Vein","S","Past Producer","Gold","","","","","Limestone","Andesite"
"212","Rieder and Bailey Prospects",33.0137,-110.71986,NA,"United States","Pinal","M","Gold","","","Unknown","","N","Occurrence","Chrysocolla","Limonite, Magnetite, Specularite","","","","Quartz Monzonite,Andesite","Diorite,Andesite"
"213","Rieder and Bailey Prospects",33.0137,-110.71986,NA,"United States","Pinal","M","Copper","","","Unknown","","N","Occurrence","Chrysocolla","Limonite, Magnetite, Specularite","","","","Quartz Monzonite,Andesite","Diorite,Andesite"
"214","Curtin Or Humphrey Mine",33.06148,-110.77708,NA,"United States","Gila","M","Lead","","Iron","Unknown","Vein","S","Past Producer","Anglesite, Hemimorphite, Smithsonite","Garnet","Underground","","The Main Porphyry Dikes Strike Approximately Parrallel To The Limestone, But Branches Of Them Trend Northeast, And South.  In General The Dikes Dip Steeply Northward, But In Places They Form Sills More Or Less Concordant With The Limestone Beds.","Limestone","Plutonic Rock"
"215","Curtin Or Humphrey Mine",33.06148,-110.77708,NA,"United States","Gila","M","Zinc","","Iron","Unknown","Vein","S","Past Producer","Anglesite, Hemimorphite, Smithsonite","Garnet","Underground","","The Main Porphyry Dikes Strike Approximately Parrallel To The Limestone, But Branches Of Them Trend Northeast, And South.  In General The Dikes Dip Steeply Northward, But In Places They Form Sills More Or Less Concordant With The Limestone Beds.","Limestone","Plutonic Rock"
"216","Copper Mountain Mine",31.88624,-110.63707,NA,"United States","Pima","M","Gold","Copper, Lead","","Unknown","Contact Metamorphic","S","Past Producer","","","","","Along Contact Of Limestone, Quartzite With Quartz Monzonite","Quartzite,Limestone","Quartz Monzonite"
"217","Catalina Group",32.48039,-110.75596,NA,"United States","Pima","M","Copper","","","Unknown","Unknown","N","Prospect","","","","","","",""
"218","Catalina Group",32.48039,-110.75596,NA,"United States","Pima","M","Gold","","","Unknown","Unknown","N","Prospect","","","","","","",""
"219","Lucido Claim Group",31.98568,-111.81765,NA,"United States","Pima","M","Gold","Copper","","Unknown","","S","Producer","Gold, Silver","","","Golden Star","","Diorite",""
"220","Desert Lode Mine",32.04067,-111.95599,NA,"United States","Pima","M","Gold","","","Unknown","","S","Producer","","","","","","Andesite","Granite"
"221","Powers Prospect",31.3932,-110.7904,NA,"United States","Santa Cruz","M","Iron","","","Unknown","Unknown","S","Past Producer","Specularite","","","","","Rhyolite",""
"222","Newman Mine",31.8643,-110.77651,NA,"United States","Pima","M","Copper","Silver, Gold","","Unknown","","S","Producer","Copper","","","Newman North, South Veins","","Limestone","Quartz Latite"
"223","Fort Apache Indian Reservation",33.83757,-110.68736,NA,"United States","Gila","M","Uranium","Molybdenum, Copper","","Unknown","","N","Occurrence","Chalcopyrite, Marcasite, Molybdenite, Pyrite, Pyrrhotite","","","","Some Of The Richest Uranium Deposits Are In Metamorphosed Parts Of The Upper Member Where It Is Intruded By Pinkish Potassium-Feldspar-Rich Aplitic Dikes.","Quartzite","Diabase"
"224","Mellor Prospect",33.05759,-110.71958,NA,"United States","Pinal, Gila","M","Copper","","","Unknown","","N","Occurrence","","","","","","Andesite","Diorite"
"225","Saddle Mountain Group",33.03453,-110.68625,NA,"United States","Pinal","M","Gold","","Zinc, Copper, Molybdenum, Lead","Unknown","","S","Past Producer","Anglesite, Argentite, Bornite, Chalcopyrite, Chrysocolla, Covellite, Galena, Gold, Malachite, Pyrargyrite, Pyrite, Silver, Sphalerite","Barite, Calcite, Garnet, Gypsum, Magnetite, Quartz, Specularite","Underground","","In Brecciated Zones Of E-W Shears And Ne Tension Fractures Near Dik E Swarm","Andesite","Diorite"
"226","Bose Mine",32.70843,-110.71429,NA,"United States","Pinal","M","Lead","","","Unknown","","N","Occurrence","","","","Burson Mine","","",""
"227","Comobabi and Crusader Mines",32.01373,-111.88849,NA,"United States","Pima","M","Copper","Gold, Lead","","Unknown","","S","Producer","Lead","","","","","Andesite,Granite","Granite"
"228","Ventana Mine Group",31.78095,-111.66292,NA,"United States","Pima","M","Copper","Gold, Silver","Manganese, Zinc, Lead","Unknown","","S","Producer","","Quartz","","","","Metasedimentary Rock,Volcanic Rock (Aphanitic)","Granite"
"229","Chester Mud No. 1 Mine",36.7028,-109.38901,NA,"United States","Apache","M","Uranium","","","Unknown","","S","Past Producer","Carnotite","","","","Ore Is Found In Clusters, Usually Associated With Carbonaceous Detritus","Claystone,Siltstone,Sandstone",""
"230","Black Hills Group",32.54344,-110.54374,NA,"United States","Pinal","M","Lead","","","Unknown","","N","Occurrence","","","","","","",""
"231","Half Moon #3 Prospect",32.47872,-110.51124,NA,"United States","Pima","M","Uranium","","","Unknown","Unconsolidated Sediments","N","Occurrence","","","","","Uranium Is Within 8 Foot Bed Of Opalite, Overlain By Loosely Consolidated Sediments","Clay, Mud,Gravel","Volcanic Rock (Aphanitic)"
"232","Sunnyside Mine",36.74446,-109.27568,NA,"United States","Apache","M","Uranium","","","Unknown","","S","Past Producer","Carnotite","","","","Ore Is Found In Clusters, Usually Associated With Carbonaceous Detritus","Claystone,Siltstone,Sandstone",""
"233","Segi-Ho-Cha Mesa Mine",36.70669,-109.28985,NA,"United States","Apache","M","Uranium","","","Unknown","","S","Past Producer","Carnotite","","","Mildred No. 1 Mine","Ore Is Found In Clusters, Usually Associated With Carbonaceous Detritus","Claystone,Siltstone,Sandstone",""
"234","Golondrina Prospect",32.4815,-109.74622,NA,"United States","Graham","M","Uranium","Copper","Lead","Unknown","","N","Occurrence","Chalcocite, Chalcopyrite, Malachite, Pyromorphite","","Surface/Underground","","Mineralization Is Localized By A 2 Foot Agglomerate Layer, Between Volcanic Flows.","Volcanic Breccia (Agglomerate)","Volcanic Rock (Aphanitic)"
"235","Clani Mine",36.66085,-109.33346,NA,"United States","Apache","M","Uranium","","","Unknown","","S","Past Producer","Carnotite","","","Tree Mesa Mine","Ore Is Found In Clusters, Usually Associated With Carbonaceous Detritus","Claystone,Siltstone,Sandstone",""
"236","Sells Mine",36.64808,-109.2779,NA,"United States","Apache","M","Uranium","","","Unknown","","M","Past Producer","Carnotite, Tyuyamunite","","","Cove Mesa Mines","Ore Is Found In Clusters, Usually Associated With Carbonaceous Detritus","Claystone,Siltstone,Sandstone",""
"237","Tony Tuc Mine",36.80363,-109.0815,NA,"United States","Apache","M","Uranium","","","Unknown","","S","Past Producer","Tyuyamunite","","","","Ore Is Found In Clusters, Usually Associated With Carbonaceous Detritus","Claystone,Siltstone,Sandstone",""
"238","Upper Red Canyon Mine",36.80169,-109.0715,NA,"United States","Apache","M","Uranium","","","Unknown","","S","Past Producer","Tyuyamunite","","","","Ore Is Found In Clusters, Usually Associated With Carbonaceous Detritus","Claystone,Siltstone,Sandstone",""
"239","Sanchez Copper Deposit",32.88149,-109.53454,NA,"United States","Graham","M","Copper","Gold, Silver, Molybdenum","","Surface-Underground","Porphyry Cu","S","Past Producer","Atacamite, Bornite, Chalcanthite, Chalcocite, Chalcopyrite, Chrysocolla, Copper, Cuprite, Delafossite, Gold, Molybdenite, Tenorite, Malachite, Brochantite","Biotite, Calcite, Chlorite, Epidote, Goethite, Hematite, Jarosite, Magnetite, Plagioclase, Pyrite, Quartz, Sericite","Surface","Safford Inspiration, Carpenter, Safford Deposit, Esperanza, Inspiration Sanchez Project, Bellmon, Bob Carresco, Arichise Copper Co., United Nuclear, Nancy Group, McBride, Azco","","Volcanic Breccia (Agglomerate),Andesite","Monzonite"
"240","Rattlesnake No. 8 Mine",36.87945,-109.2654,NA,"United States","Apache","M","Uranium","","","Unknown","","S","Past Producer","Tyuyamunite","","","Plot No. 12 Mine","Ore Is Found In Clusters, Usually Associated With Carbonaceous Detritus","Claystone,Siltstone,Sandstone",""
"241","Humbug Mines",34.04673,-112.30685,NA,"United States","Yavapai","M","Gold","","Lead, Zinc, Arsenic","Unknown","","S","Producer","Galena, Pyrite, Sphalerite","","","","","Schist,Pegmatite,Granite","Rhyolite"
"242","Martin Mine",36.88029,-109.29512,NA,"United States","Apache","M","Uranium","","","Unknown","","L","Past Producer","Carnotite, Tyuyamunite","","","Geo. Simpson No. 1b Mine","Ore Is Found In Clusters, Usually Associated With Carbonaceous Detritus","Claystone,Siltstone,Sandstone",""
"243","No. 5 Mine",36.89001,-109.27068,NA,"United States","Apache","M","Uranium","","","Unknown","","M","Past Producer","Carnotite, Tyuyamunite","","","","Ore Is Found In Clusters, Usually Associated With Carbonaceous Detritus","Claystone,Siltstone,Sandstone",""
"244","Wolverine Mine",31.42153,-109.92259,NA,"United States","Cochise","M","Copper","Gold, Silver","","Unknown","Replacement","S","Past Producer","Anglesite, Bornite, Chalcocite, Chalcopyrite, Gold, Silver","Pyrite, Quartz","","Broken Promise","Ore Bodies Near Dikes And Sills, And Faulting And Associated Brecciation","Limestone","Granite"
"245","Wolverine Mine",31.42153,-109.92259,NA,"United States","Cochise","M","Lead","Gold, Silver","","Unknown","Replacement","S","Past Producer","Anglesite, Bornite, Chalcocite, Chalcopyrite, Gold, Silver","Pyrite, Quartz","","Broken Promise","Ore Bodies Near Dikes And Sills, And Faulting And Associated Brecciation","Limestone","Granite"
"246","Wolverine Mine",31.42153,-109.92259,NA,"United States","Cochise","M","Zinc","Gold, Silver","","Unknown","Replacement","S","Past Producer","Anglesite, Bornite, Chalcocite, Chalcopyrite, Gold, Silver","Pyrite, Quartz","","Broken Promise","Ore Bodies Near Dikes And Sills, And Faulting And Associated Brecciation","Limestone","Granite"
"247","Carper Shaft",31.69707,-110.04677,NA,"United States","Cochise","M","Lead","Silver, Gold","","Unknown","Replacement","S","Producer","Galena, Gold, Silver","","","","Largely Oxidized Argentiferous Galena Along A Strong Fault Zone N30-35e, 75w, Intersected By Fissure With Ne Strike, 35se","Quartzite,Shale,Sandstone",""
"248","Rattlesnake No. 1 Mine",36.87002,-109.11873,NA,"United States","Apache","M","Uranium","","","Unknown","","S","Past Producer","Carnotite","","","Shorty Mine","Ore Is Found In Clusters, Usually Associated With Carbonaceous Detritus","Claystone,Siltstone,Sandstone",""
"249","Bettie No. 1 Mine",36.84558,-109.13373,NA,"United States","Apache","M","Uranium","","","Unknown","","S","Past Producer","Carnotite","","","","Ore Is Found In Clusters, Usually Associated With Carbonaceous Detritus","Claystone,Siltstone,Sandstone",""
"250","Ruben No. 1 Mine",36.84891,-109.10234,NA,"United States","Apache","M","Uranium","","","Unknown","","S","Past Producer","Carnotite","","","","Ore Is Found In Clusters, Usually Associated With Carbonaceous Detritus","Claystone,Siltstone,Sandstone",""
"251","Todakonzie No. 1 Mine",36.84891,-109.09345,NA,"United States","Apache","M","Uranium","","","Unknown","","S","Past Producer","Carnotite","","","","Ore Is Found In Clusters, Usually Associated With Carbonaceous Detritus","Claystone,Siltstone,Sandstone",""
"252","Higgins Mine",31.4382,-109.92065,NA,"United States","Cochise","M","Copper","Silver, Gold","Vanadium","Unknown","Replacement","M","Past Producer","Bornite, Chalcocite, Chalcopyrite, Gold, Silver","Pyrite, Quartz","Surface/Underground","Twilight","Ore Bodies Near Dikes And Sills, And Faulting And Associated Brecciation","Limestone","Granite"
"253","Higgins Mine",31.4382,-109.92065,NA,"United States","Cochise","M","Lead","Silver, Gold","Vanadium","Unknown","Replacement","M","Past Producer","Bornite, Chalcocite, Chalcopyrite, Gold, Silver","Pyrite, Quartz","Surface/Underground","Twilight","Ore Bodies Near Dikes And Sills, And Faulting And Associated Brecciation","Limestone","Granite"
"254","Escapule Mine",31.85096,-109.94233,NA,"United States","Cochise","M","Zinc","","Copper, Gold, Molybdenum, Vanadium","Unknown","","S","Past Producer","Chalcopyrite, Galena, Sphalerite, Vanadinite, Wulfenite","","Underground","Garnet, Moonlight Groups","Ore Occurs In Folded And Faulted Paleozoic Limestone In The Hanging Wall Side Of The Dragoon Fault","Limestone","Quartz Monzonite"
"255","Escapule Mine",31.85096,-109.94233,NA,"United States","Cochise","M","Lead","","Copper, Gold, Molybdenum, Vanadium","Unknown","","S","Past Producer","Chalcopyrite, Galena, Sphalerite, Vanadinite, Wulfenite","","Underground","Garnet, Moonlight Groups","Ore Occurs In Folded And Faulted Paleozoic Limestone In The Hanging Wall Side Of The Dragoon Fault","Limestone","Quartz Monzonite"
"256","Berkley Mine",31.67791,-111.62681,NA,"United States","Pima","M","Copper","Gold","Lead, Zinc","Unknown","","S","Producer","Pyrite","Quartz","","","","Metasedimentary Rock","Plutonic Rock"
"257","Emmett and Elgin Mine",31.71319,-111.65598,NA,"United States","Pima","M","Gold","Copper, Silver","","Unknown","","S","Producer","","","","","Along Irregular Quartz-Fissure Zone","Metasedimentary Rock","Granite"
"258","Langley Mine",31.38403,-110.68873,NA,"United States","Santa Cruz","M","Lead","Silver, Gold","","Unknown","Replacement","S","Past Producer","","","Underground","Red Rose","Irregular Replacement Bodies Along Contact Between Limestone And Rhyolite","Limestone","Volcanic Rock (Aphanitic)"
"259","Santo Nino Mine",31.36097,-110.71873,NA,"United States","Santa Cruz","M","Copper","Molybdenum, Gold","Lead, Zinc","Underground","","S","Past Producer","Chalcopyrite, Molybdenite, Pyrite","Quartz","","Santa Maria Molybdenum, North Santo Nino, Brooks, North Santo Wind","Quartz Veins In Feldspathoid Zone In Granodiorite","Diorite","Hornblendite"
"260","Jim Lee No. 1 Mine",36.84141,-109.09761,NA,"United States","Apache","M","Uranium","","","Unknown","","S","Past Producer","Carnotite","","","Richard King No. 1 Mine","Ore Is Found In Clusters, Usually Associated With Carbonaceous Detritus","Claystone,Siltstone,Sandstone",""
"261","Ingersol Mine",31.70457,-110.07177,NA,"United States","Cochise","M","Lead","Manganese, Copper, Cadmium","","Unknown","Replacement","S","Past Producer","","","Underground","Bob Ingersol, Blue Monday, Hearst-Hagen Estate","","Limestone",""
"262","Ingersol Mine",31.70457,-110.07177,NA,"United States","Cochise","M","Zinc","Manganese, Copper, Cadmium","","Unknown","Replacement","S","Past Producer","","","Underground","Bob Ingersol, Blue Monday, Hearst-Hagen Estate","","Limestone",""
"263","Ingersol Mine",31.70457,-110.07177,NA,"United States","Cochise","M","Gold","Manganese, Copper, Cadmium","","Unknown","Replacement","S","Past Producer","","","Underground","Bob Ingersol, Blue Monday, Hearst-Hagen Estate","","Limestone",""
"264","Vizina Lode",31.7118,-110.0676,NA,"United States","Cochise","M","Lead","","","Unknown","Replacement","S","Producer","Chalcopyrite, Gold, Pyrite","","","Vizina Consolidated Mng. Co.","Anticlinal Rolls And ""Northeast"" Fissures.","Limestone",""
"265","Vizina Lode",31.7118,-110.0676,NA,"United States","Cochise","M","Gold","","","Unknown","Replacement","S","Producer","Chalcopyrite, Gold, Pyrite","","","Vizina Consolidated Mng. Co.","Anticlinal Rolls And ""Northeast"" Fissures.","Limestone",""
"266","Sherwood Mine",31.99706,-111.86432,NA,"United States","Pima","M","Copper","Gold","","Unknown","","S","Producer","Bornite, Chalcocite, Chalcopyrite, Pyrite","","","Reilly Lode, Green","Vein Along Fault Zone, High Silver Values In Oxidized Zone","Diorite","Diorite"
"267","Oceanic Mine",31.56985,-111.41263,NA,"United States","Pima","M","Gold","Lead, Copper","Zinc","Unknown","","S","Producer","","","","San Luis Mine","","Clastic Sedimentary Rock","Granite"
"268","Lobos Group",31.6443,-111.67237,NA,"United States","Pima","M","Uranium","Copper","","Unknown","","N","Occurrence","","Epidote","","","Best Radioactivity Along Fractures And Walls Of Vein.  Also Within Mica Schist","Quartzite","Andesite"
"269","Arivaca Creek Placers",31.59152,-111.35902,NA,"United States","Pima","M","Gold","Silver","Tungsten, Mercury","Unknown","","S","Past Producer","Gold","Cinnabar, Wolframite","","","At Or Near Bedrock.","Gravel,Sand and Gravel",""
"270","San Luis Wash Placers",31.55985,-111.41486,NA,"United States","Pima","M","Gold","","Silver","Unknown","","S","Producer","Gold","","","","","Gravel,Alluvium",""
"271","Shamrock Mine",31.55985,-111.34319,NA,"United States","Pima","M","Lead","","Uranium","Unknown","","S","Producer","Galena, Smithsonite","Barite, Limonite, Quartz","Underground","","","Rhyolite",""
"272","El Conquistadors Claims",31.96901,-111.5082,NA,"United States","Pima","M","Uranium","","","Unknown","","N","Occurrence","","","","","","Gneiss","Gneiss"
"273","M.C.M. Mine Group",31.53735,-111.33458,NA,"United States","Pima","M","Lead","Copper, Gold","Zinc","Unknown","","S","Past Producer","Chalcopyrite, Pyrite, Sphalerite","","","Guadalupe Group","","Metasedimentary Rock","Granite"
"274","Long Shot Mine Group",31.54457,-111.34319,NA,"United States","Pima","M","Lead","Copper, Gold","Zinc","Unknown","","S","Producer","","","","","","Metasedimentary Rock","Granite"
"275","Squaw Peak Mine",34.48255,-111.85712,NA,"United States","Yavapai","M","Copper","Silver, Lead, Zinc","","Unknown","Porphyry Cu-Mo","S","Past Producer","Bornite, Chalcopyrite, Malachite, Molybdenite, Sphalerite","Ankerite, Pyrite, Quartz","Underground","","Igneous Rocks, Fractures, Faulting","Quartz Monzonite,Granodiorite",""
"276","Congress Extension Mine",34.20227,-112.85992,NA,"United States","Yavapai","M","Gold","","Copper","Unknown","","S","Past Producer","Chalcopyrite, Pyrite","Quartz","Underground","Senate Mine","Faulting, Shearing, Igneous Activity","Granite","Mafic Intrusive Rock,Diorite,Andesite"
"277","Mammoth Mine",34.56643,-113.24549,NA,"United States","Yavapai","M","Copper","Silver, Gold","Molybdenum, Uranium, Thorium","Unknown","","N","Occurrence","Chalcanthite, Chalcopyrite, Chrysocolla, Cuprite, Gold, Malachite, Molybdenite, Pyrite, Silver","Quartz","Underground","Hubbard","Breccia Pipe","Quartz Monzonite,Diorite,Rhyolite","Quartz Monzonite,Diorite,Rhyolite"
"278","Money Metals Mine",34.43755,-112.38657,NA,"United States","Yavapai","M","Gold","Zinc, Copper","Uranium, Vanadium","Unknown","","S","Past Producer","Chalcopyrite, Galena, Metahewettite, Sphalerite, Tyuyamunite","Quartz","Surface/Underground","Snow Drift, Snowdrift","Faulting, Shearing","Diorite","Rhyolite"
"279","Money Metals Mine",34.43755,-112.38657,NA,"United States","Yavapai","M","Lead","Zinc, Copper","Uranium, Vanadium","Unknown","","S","Past Producer","Chalcopyrite, Galena, Metahewettite, Sphalerite, Tyuyamunite","Quartz","Surface/Underground","Snow Drift, Snowdrift","Faulting, Shearing","Diorite","Rhyolite"
"280","Oro Belle Mine",34.17062,-112.34574,NA,"United States","Yavapai","M","Gold","Copper, Silver","","Unknown","Vein","S","Producer","","Quartz","Underground","Orobelle-Gray Eagle","Faulting","Slate,Quartzite,Schist","Quartz Monzonite"
"281","Midnight Test Mine",34.47394,-112.40268,NA,"United States","Yavapai","M","Gold","Copper, Silver, Lead","Zinc","Unknown","","S","Producer","Galena, Gold, Sphalerite","Quartz","Underground","National Gold","Faulting, Igneous Activity, Especially Dike Emplacment","Slate,Meta-Basalt,Rhyolite","Rhyolite,Basalt"
"282","Hassayampa Placers",34.46033,-112.49214,NA,"United States","Yavapai","M","Gold","","","Unknown","","S","Producer","Gold","","","","","Gravel",""
"283","Golden Slipper Mine",33.95506,-112.5088,NA,"United States","Yavapai","M","Gold","Copper, Silver","","Unknown","","S","Producer","Gold","Calcite, Quartz","Underground","","Faulting, Shearing","Tuff,Rhyolite,Dacite","Tuff,Rhyolite,Dacite"
"284","Bee Hive Mine",34.15838,-112.68158,NA,"United States","Yavapai","M","Gold","Copper, Silver","Lead","Unknown","","S","Producer","Bornite, Chalcopyrite, Galena, Gold, Pyrite, Tetrahedrite","Quartz","Underground","Peterson Group Claims, Beehive Gold, Zieger","Faulting, Shearing, Igneous Activity","Schist,Andesite,Granite",""
"285","Black Canyon Placers",34.19312,-112.17296,NA,"United States","Yavapai","M","Gold","","","Unknown","Placer","S","Producer","Gold","","","","","Gravel",""
"286","Oxbow Mine",31.9668,-109.21731,NA,"United States","Cochise","M","Copper","","","Unknown","","S","Producer","","","","","","",""
"287","Oxbow Mine",31.9668,-109.21731,NA,"United States","Cochise","M","Lead","","","Unknown","","S","Producer","","","","","","",""
"288","Rieder Mine",31.98957,-109.26703,NA,"United States","Cochise","M","Gold","","","Unknown","Replacement","N","Occurrence","","","","","","Limestone,Rhyolite",""
"289","Rieder Mine",31.98957,-109.26703,NA,"United States","Cochise","M","Copper","","","Unknown","Replacement","N","Occurrence","","","","","","Limestone,Rhyolite",""
"290","Big Stick Mine",31.46681,-110.78485,NA,"United States","Santa Cruz","M","Copper","","","Unknown","","N","Occurrence","","","","","","Diorite,Granite",""
"291","Cleveland Deposit",31.44958,-111.24013,NA,"United States","Santa Cruz","M","Gold","","","Unknown","","U","Occurrence","","","","","","Diorite,Quartzite,Shale,Sandstone",""
"292","Franklin Deposit",31.39375,-111.24152,NA,"United States","Santa Cruz","M","Copper","","","Unknown","","U","Occurrence","","","","","","Diorite,Quartzite,Shale,Sandstone",""
"293","Franklin Deposit",31.39375,-111.24152,NA,"United States","Santa Cruz","M","Lead","","","Unknown","","U","Occurrence","","","","","","Diorite,Quartzite,Shale,Sandstone",""
"294","Franklin Deposit",31.39375,-111.24152,NA,"United States","Santa Cruz","M","Gold","","","Unknown","","U","Occurrence","","","","","","Diorite,Quartzite,Shale,Sandstone",""
"295","Antietam Mine",33.13316,-109.34759,NA,"United States","Greenlee","M","Copper","Silver, Gold","","Unknown","","S","Producer","Chalcocite, Chalcopyrite, Copper, Cuprite, Pyrite","","Underground","Boulder Claim, Shannon Property, Antietam Claim, Leo C Claim","N-S Trending Fissure Vein In Granite Basement","Granite","Diorite"
"296","Mansfield Claim",33.12621,-109.33065,NA,"United States","Greenlee","M","Copper","Gold, Silver","","Unknown","Vein","S","Producer","Malachite","Epidote, Orthoclase, Quartz","Underground","Expectation Group","High-Grade Malachite Ore Occurs In Pockets Along Ne-Trending Dike. Main Ore Body Was Found At A Corss Fracture To The Dike","Granite","Plutonic Rock"
"297","Cottonwood Mine",32.15568,-109.52232,NA,"United States","Cochise","M","Gold","","","Unknown","Vein","S","Producer","Galena, Gold, Silver","Pyrite, Quartz","Unknown","Apache Pass District","Fissures In Quartz Monzonite, Nearby Andesite Or Rhyolite Dikes","Quartz Monzonite,Granite","Rhyolite,Andesite"
"298","Cottonwood Mine",32.15568,-109.52232,NA,"United States","Cochise","M","Lead","","","Unknown","Vein","S","Producer","Galena, Gold, Silver","Pyrite, Quartz","Unknown","Apache Pass District","Fissures In Quartz Monzonite, Nearby Andesite Or Rhyolite Dikes","Quartz Monzonite,Granite","Rhyolite,Andesite"
"299","Chimney  Prospect",31.7643,-110.42789,NA,"United States","Cochise","M","Copper","","","Unknown","Unknown","N","Occurrence","","","","","","Quartzite","Granite"
"300","Chimney  Prospect",31.7643,-110.42789,NA,"United States","Cochise","M","Gold","","","Unknown","Unknown","N","Occurrence","","","","","","Quartzite","Granite"
"301","Chase Creek Placers",33.05982,-109.32121,NA,"United States","Greenlee","M","Gold","","","Unknown","Placer","S","Producer","Gold","Gravel","","","Elevated Stream Gravels Resting On Gila Conglomerate; Shallow Gullies Of Tributary Canyons","Gravel,Conglomerate","Granite"
"302","Syracuse R.F. and R. Mine",36.76696,-109.05345,NA,"United States","Apache","M","Uranium","","","Unknown","","M","Past Producer","Carnotite","","","","Ore Is Found In Clusters, Usually Associated With Carbonaceous Detritus","Claystone,Siltstone,Sandstone",""
"303","Ajax Mine",32.01319,-109.21231,NA,"United States","Cochise","M","Zinc","","Silver, Gold","Unknown","","S","Past Producer","","","","Doran and Gallagher","","Volcanic Breccia (Agglomerate)","Mafic Intrusive Rock"
"304","Ajax Mine",32.01319,-109.21231,NA,"United States","Cochise","M","Lead","","Silver, Gold","Unknown","","S","Past Producer","","","","Doran and Gallagher","","Volcanic Breccia (Agglomerate)","Mafic Intrusive Rock"
"305","Ajax Mine",32.01319,-109.21231,NA,"United States","Cochise","M","Copper","","Silver, Gold","Unknown","","S","Past Producer","","","","Doran and Gallagher","","Volcanic Breccia (Agglomerate)","Mafic Intrusive Rock"
"306","Hazel Mine",36.76446,-109.05067,NA,"United States","Apache","M","Uranium","","","Unknown","","S","Past Producer","Tyuyamunite","","","","Ore Is Found In Clusters, Usually Associated With Carbonaceous Detritus","Claystone,Siltstone,Sandstone",""
"307","Leroy Mine",35.97781,-109.5354,NA,"United States","Apache","M","Uranium","","","Unknown","","S","Past Producer","Tyuyamunite","","","Mp-552 Mine","Ore Is Found In Clusters, Usually Associated With Carbonaceous Detritus","Claystone,Siltstone,Sandstone",""
"308","Oak Springs Gravel Cap Mine",36.75502,-109.0515,NA,"United States","Apache","M","Uranium","","","Unknown","","M","Past Producer","Carnotite, Tyuyamunite","Calcite","","","Ore Is Found In Clusters, Usually Associated With Carbonaceous Detritus.  Ore Zone Occurs 54 Ft. Above Lower Contact With Bluff Sandstone.  Channeling And Cross-Lamination Noted.","Claystone,Siltstone,Sandstone",""
"309","Upper Red Wash Mine",36.56335,-109.054,NA,"United States","Apache","M","Uranium","","","Unknown","","S","Past Producer","Tyuyamunite","","","Nakai Chee Begay Mine","Ore Is Found In Clusters, Usually Associated With Carbonaceous Detritus","Claystone,Siltstone,Sandstone",""
"310","Tohe Thlany Begay Mine",36.54946,-109.0515,NA,"United States","Apache","M","Uranium","","","Unknown","","S","Past Producer","Tyuyamunite","","","","Ore Is Found In Clusters, Usually Associated With Carbonaceous Detritus","Claystone,Siltstone,Sandstone",""
"311","Merrimac Mine",31.70485,-110.10455,NA,"United States","Cochise","M","Gold","","","Unknown","Replacement","S","Past Producer","Gold, Silver","","","","Fault Fissures, N25e To N50e, Dip 35 To 70 Nw","Quartz Latite",""
"312","Hubbard Mine",31.94096,-110.0326,NA,"United States","Cochise","M","Zinc","","Gold, Lead, Copper, Silver","Unknown","Replacement","S","Producer","Copper, Gold, Lead, Silver","","","Dragoon Zinc, Democrat and Sherman","","Limestone","Granite"
"313","Rainbow  Mine",31.97596,-110.01094,NA,"United States","Cochise","M","Zinc","","","Unknown","Unknown","N","Occurrence","","","","","","",""
"314","Rainbow  Mine",31.97596,-110.01094,NA,"United States","Cochise","M","Lead","","","Unknown","Unknown","N","Occurrence","","","","","","",""
"315","Golden Rule Mine Area",32.03069,-109.96927,NA,"United States","Cochise","M","Lead","Copper","","Unknown","","S","Producer","Anglesite, Cerussite, Copper, Galena, Pyrite","Hematite, Quartz","Unknown","Old Terrible, Golden Eagle, Santa Lucia","In Fissure Veinsin Limestone, And In Veins Along Limestone, Rhyolite Porphyry Contact","Limestone","Rhyolite"
"316","Golden Rule Mine Area",32.03069,-109.96927,NA,"United States","Cochise","M","Zinc","Copper","","Unknown","","S","Producer","Anglesite, Cerussite, Copper, Galena, Pyrite","Hematite, Quartz","Unknown","Old Terrible, Golden Eagle, Santa Lucia","In Fissure Veinsin Limestone, And In Veins Along Limestone, Rhyolite Porphyry Contact","Limestone","Rhyolite"
"317","Golden Rule Mine Area",32.03069,-109.96927,NA,"United States","Cochise","M","Gold","Copper","","Unknown","","S","Producer","Anglesite, Cerussite, Copper, Galena, Pyrite","Hematite, Quartz","Unknown","Old Terrible, Golden Eagle, Santa Lucia","In Fissure Veinsin Limestone, And In Veins Along Limestone, Rhyolite Porphyry Contact","Limestone","Rhyolite"
"318","Baumkirscher Mine",31.4007,-110.2476,NA,"United States","Cochise","M","Lead","Silver","","Unknown","Replacement","S","Past Producer","Gold, Silver","","","Golden Crown Groups., International, Golconda, Crocket Moon, M Lode","Thrust Fault","Limestone",""
"319","Baumkirscher Mine",31.4007,-110.2476,NA,"United States","Cochise","M","Zinc","Silver","","Unknown","Replacement","S","Past Producer","Gold, Silver","","","Golden Crown Groups., International, Golconda, Crocket Moon, M Lode","Thrust Fault","Limestone",""
"320","Baumkirscher Mine",31.4007,-110.2476,NA,"United States","Cochise","M","Copper","Silver","","Unknown","Replacement","S","Past Producer","Gold, Silver","","","Golden Crown Groups., International, Golconda, Crocket Moon, M Lode","Thrust Fault","Limestone",""
"321","Baumkirscher Mine",31.4007,-110.2476,NA,"United States","Cochise","M","Gold","Silver","","Unknown","Replacement","S","Past Producer","Gold, Silver","","","Golden Crown Groups., International, Golconda, Crocket Moon, M Lode","Thrust Fault","Limestone",""
"322","Barton No. 4 Mine",36.80169,-109.07539,NA,"United States","Apache","M","Uranium","","","Unknown","","S","Past Producer","Carnotite","","","","Ore Is Found In Clusters, Usually Associated With Carbonaceous  Detritus.  Three Exposures Are Found In Lower 20 Ft. Of Salt Wash.","Claystone,Siltstone,Sandstone","Diorite"
"323","Golden Rose Mine",31.38931,-110.77679,NA,"United States","Santa Cruz","M","Lead","Gold","Molybdenum, Antimony","Unknown","","S","Past Producer","Chalcopyrite, Galena, Gold, Molybdenite, Pyrite, Specularite, Stephanite","Quartz","Underground","","Near Contact Of Syenodiorite And Granite","Diorite","Diorite"
"324","Golden Rose Mine",31.38931,-110.77679,NA,"United States","Santa Cruz","M","Copper","Gold","Molybdenum, Antimony","Unknown","","S","Past Producer","Chalcopyrite, Galena, Gold, Molybdenite, Pyrite, Specularite, Stephanite","Quartz","Underground","","Near Contact Of Syenodiorite And Granite","Diorite","Diorite"
"325","Line Boy Mine",31.33542,-110.6915,NA,"United States","Santa Cruz","M","Copper","Gold","Molybdenum, Iron, Lithium","Unknown","","S","Past Producer","Bornite, Chalcocite, Chalcopyrite, Molybdenite, Pyrite, Specularite","Calcite, Quartz","Underground","Contains Some Last Chance and Montana Claims","Contact Of Porphyry Dike And Quartz Monzonite, Joint Planes And Fissures","Quartz Monzonite","Hornblendite"
"326","Benton Mine",31.3407,-110.69511,NA,"United States","Santa Cruz","M","Copper","","","Unknown","","N","Occurrence","Chalcopyrite, Malachite, Molybdenite, Pyrite","","Underground","","Ore Minerals Disseminated In 60 Ft N-S Trending Granite Porphyry Dike Cutting Quartz Monzonite Country Rock","Hornblendite,Granite","Hornblendite"
"327","Benton Mine",31.3407,-110.69511,NA,"United States","Santa Cruz","M","Gold","","","Unknown","","N","Occurrence","Chalcopyrite, Malachite, Molybdenite, Pyrite","","Underground","","Ore Minerals Disseminated In 60 Ft N-S Trending Granite Porphyry Dike Cutting Quartz Monzonite Country Rock","Hornblendite,Granite","Hornblendite"
"328","Leadville Group",31.90623,-111.20791,NA,"United States","Pima","M","Copper","","","Unknown","","N","Occurrence","","","Underground","","Ore Occurs In Small Pods In Footwall Shear And Small Cross Fractures.","Volcanic Rock (Aphanitic)",""
"329","Leadville Group",31.90623,-111.20791,NA,"United States","Pima","M","Uranium","","","Unknown","","N","Occurrence","","","Underground","","Ore Occurs In Small Pods In Footwall Shear And Small Cross Fractures.","Volcanic Rock (Aphanitic)",""
"330","England - Hill - Bixby Groups",32.0429,-111.11708,NA,"United States","Pima","M","Uranium","","","Unknown","","N","Occurrence","Zircon","","Surface","","","Granite","Granite"
"331","Madera Canyon Placers",31.73624,-110.88457,NA,"United States","Pima","M","Gold","","","Unknown","Placer","S","Producer","Gold","","Surface/Underground","Old Baldy Placers","","Sand and Gravel",""
"332","Christmas Claims",32.449,-110.51124,NA,"United States","Pima","M","Uranium","","","Unknown","","N","Occurrence","","Calcite, Chalcedony","","","","Sand and Gravel","Tuff"
"333","Tsosie No. 1 Mine",36.87918,-109.28235,NA,"United States","Apache","M","Uranium","","","Unknown","","S","Past Producer","Tyuyamunite","","","","Ore Is Found In Clusters, Usually Associated With Carbonaceous Detritus","Claystone,Siltstone,Sandstone",""
"334","Cleveland No. 1 Mine",36.88112,-109.26374,NA,"United States","Apache","M","Uranium","","","Unknown","","S","Past Producer","Tyuyamunite","","","","Ore Is Found In Clusters, Usually Associated With Carbonaceous Detritus","Claystone,Siltstone,Sandstone",""
"335","Zona No. 1 Mine",36.84141,-109.10761,NA,"United States","Apache","M","Uranium","","","Unknown","","M","Past Producer","Carnotite","","","","Ore Is Found In Clusters, Usually Associated With Carbonaceous Detritus","Claystone,Siltstone,Sandstone",""
"336","Morgan Mine",31.36875,-110.25816,NA,"United States","Cochise","M","Gold","","Tungsten","Unknown","","S","Producer","Scheelite","","","Nugget","","Quartz Monzonite",""
"337","Kinusta Mesa Mines",36.66974,-109.32651,NA,"United States","Apache","M","Uranium","","","Unknown","","M","Past Producer","Tyuyamunite","","","Tree Mine, Plot E Mine","Ore Is Found In Clusters, Usually Associated With Carbonaceous Detritus","Claystone,Siltstone,Sandstone",""
"338","El Tigre Mine",31.93569,-109.28425,NA,"United States","Cochise","M","Lead","","","Unknown","Vein","S","Producer","","","","","","Volcanic Rock (Aphanitic)","Rhyolite"
"339","El Tigre Mine",31.93569,-109.28425,NA,"United States","Cochise","M","Copper","","","Unknown","Vein","S","Producer","","","","","","Volcanic Rock (Aphanitic)","Rhyolite"
"340","El Tigre Mine",31.93569,-109.28425,NA,"United States","Cochise","M","Gold","","","Unknown","Vein","S","Producer","","","","","","Volcanic Rock (Aphanitic)","Rhyolite"
"341","Friday Mesa Mine",36.72669,-109.27512,NA,"United States","Apache","M","Uranium","","","Unknown","","S","Past Producer","Carnotite","","","","Ore Is Found In Clusters, Usually Associated With Carbonaceous Detritus","Claystone,Siltstone,Sandstone",""
"342","Swiss-American Prospect",35.01891,-114.41524,NA,"United States","Mohave","M","Gold","","","Unknown","","N","Occurrence","Gold","","Underground","","","Andesite",""
"343","Katherine Mine",35.23363,-114.54775,NA,"United States","Mohave","M","Gold","Copper","Beryllium","Unknown","Vein","S","Past Producer","Chalcocite, Gold, Hematite, Silver","Calcite","Underground","","","Gneiss","Rhyolite,Trachyte"
"344","San Diego Group",35.21641,-114.40387,NA,"United States","Mohave","M","Gold","Silver","","Unknown","","S","Past Producer","Gold, Silver","","Underground","","The Ore Favors Rock Contacts, Particularly The Younger Rhyolite, But Also Occurs Within The Rocks.","Granite","Rhyolite"
"345","O.K. Group",35.22613,-114.4172,NA,"United States","Mohave","M","Gold","","","Unknown","","N","Occurrence","Galena, Gold","","Underground","","","Granite","Rhyolite"
"346","O.K. Group",35.22613,-114.4172,NA,"United States","Mohave","M","Lead","","","Unknown","","N","Occurrence","Galena, Gold","","Underground","","","Granite","Rhyolite"
"347","Golden Rule Prospect",35.79001,-114.23303,NA,"United States","Mohave","M","Gold","","Molybdenum, Zinc","Unknown","Vein","S","Past Producer","Gold","Quartz","Unknown","Gold Link","","Gneiss","Quartz Monzonite,Pegmatite,Granite"
"348","New Chance Prospect",35.15724,-114.38692,NA,"United States","Mohave","M","Gold","Silver","","Unknown","Vein","N","Occurrence","Gold","Fluorite, Hematite","","","High Ore Values Are Associated With Quartz-Adularia Portion Of The Vein, Fluorspar, And Rhyolite-Granite Contact.","Granite","Rhyolite,Andesite"
"349","Yeakley Mine",32.29179,-109.65065,NA,"United States","Cochise","M","Lead","","","Unknown","Vein","S","Producer","","","","","","",""
"350","Yeakley Mine",32.29179,-109.65065,NA,"United States","Cochise","M","Copper","","","Unknown","Vein","S","Producer","","","","","","",""
"351","Leadville  Group",31.93735,-109.23064,NA,"United States","Cochise","M","Lead","Tungsten","","Unknown","","S","Producer","Anglesite, Galena, Scheelite","","Underground","","","Limestone","Granite"
"352","Leadville  Group",31.93735,-109.23064,NA,"United States","Cochise","M","Copper","Tungsten","","Unknown","","S","Producer","Anglesite, Galena, Scheelite","","Underground","","","Limestone","Granite"
"353","Golden Eagle Prospect",33.1351,-109.30843,NA,"United States","Greenlee","M","Copper","","Lead","Unknown","","S","Producer","Bornite, Chalcocite, Chalcopyrite, Pyrite","Kaolin","Underground","","Ne Trending Fissure Veins; W-E Trending Porphyry Dikes","Granite","Diorite"
"354","Golden Eagle Prospect",33.1351,-109.30843,NA,"United States","Greenlee","M","Gold","","Lead","Unknown","","S","Producer","Bornite, Chalcocite, Chalcopyrite, Pyrite","Kaolin","Underground","","Ne Trending Fissure Veins; W-E Trending Porphyry Dikes","Granite","Diorite"
"355","Iolanthe Prospect",33.13621,-109.34259,NA,"United States","Greenlee","M","Copper","","","Unknown","Contact Metamorphic","S","Producer","Chrysocolla, Malachite","Serpentine","","Dead Pine, El Moro","Deposits Form Irregular Masses Along Limestone - Porphyry Contact.","Limestone","Granite"
"356","Mammoth Mine",33.13871,-109.35926,NA,"United States","Greenlee","M","Copper","","","Unknown","Vein","S","Producer","Chrysocolla","Malachite","Underground","Arizona Copper Co Group","Ne Trending Fissure Vein Follows Main Contact Between Limestone And 200 Ft Thick Porphyry Dike; Ore Bodies Chiefly Occur In Limestone And Not In Porphyry","Limestone","Plutonic Rock"
"357","Lucky Strike Claim",33.94284,-112.51768,NA,"United States","Maricopa","M","Uranium","","Lead, Copper, Zinc, Molybdenum","Unknown","Vein","N","Occurrence","Chalcocite, Chalcopyrite, Chrysocolla, Galena, Willemite, Wulfenite","Calcite, Quartz","Underground","","","Schist",""
"358","San Juan Mine",32.94593,-109.65288,NA,"United States","Graham","M","Copper","Gold, Silver","Molybdenum","Surface-Underground","Hydrothermal Stockwork","S","Past Producer","Antlerite, Brochantite, Chalcocite, Chalcopyrite, Chrysocolla, Cuprite, Malachite, Molybdenite, Tenorite","Chlorite, Epidote, Hematite, Jarosite, Limonite, Magnetite, Pyrite, Quartz, Sericite","Underground","Peacock","Ore In Veins And Fractures In Quartz Monzonite Porphyry With Some Disseminated Sulfides","Quartz Monzonite,Diorite",""
"359","Terra Firma Prospect",32.91899,-109.58898,NA,"United States","Graham","M","Aluminum","","","Unknown","Vein","N","Occurrence","Alunite","","Underground","","","Rhyolite,Andesite",""
"360","Glance Mine",31.3682,-109.81759,NA,"United States","Cochise","M","Copper","","","Unknown","Unknown","N","Occurrence","Lead","","","","","",""
"361","Glance Mine",31.3682,-109.81759,NA,"United States","Cochise","M","Lead","","","Unknown","Unknown","N","Occurrence","Lead","","","","","",""
"362","Glance Mine",31.3682,-109.81759,NA,"United States","Cochise","M","Zinc","","","Unknown","Unknown","N","Occurrence","Lead","","","","","",""
"363","Lowell Mine",31.42764,-109.90371,NA,"United States","Cochise","M","Copper","Gold, Zinc, Lead, Silver","","Unknown","Replacement","L","Past Producer","Anglesite, Bornite, Chalcocite, Chalcopyrite, Gold, Silver","Pyrite, Quartz","Underground","","Ore Bodies Near Dikes And Sills, And Faulting And Associated Brecciation","Limestone","Granite"
"364","Tranquility Shaft",31.70791,-110.06288,NA,"United States","Cochise","M","Lead","","","Unknown","","S","Past Producer","","","","","Ne Trending Fissures","Quartzite,Shale,Sandstone",""
"365","Old Guard Mine",31.70319,-110.07427,NA,"United States","Cochise","M","Gold","","","Unknown","Replacement","S","Past Producer","Gold","","","Royal Guard, Old Guard Mng. Co., Imperial Guard Mng.Co., Silver Bar Mng. Co., Tombstone Silver Fields Mng. Co.","Lucky Cuss Fault Zone","Shale,Limestone",""
"366","Old Guard Mine",31.70319,-110.07427,NA,"United States","Cochise","M","Lead","","","Unknown","Replacement","S","Past Producer","Gold","","","Royal Guard, Old Guard Mng. Co., Imperial Guard Mng.Co., Silver Bar Mng. Co., Tombstone Silver Fields Mng. Co.","Lucky Cuss Fault Zone","Shale,Limestone",""
"367","Tribal Claims",33.21203,-110.09011,NA,"United States","Graham","M","Gold","Silver, Copper","","Unknown","Vein","N","Occurrence","","","Surface","","","Quartzite",""
"368","Long Tom Mine",32.57705,-110.33734,NA,"United States","Graham","M","Gold","","","Unknown","","S","Past Producer","Pyrite","","Surface/Underground","Roberts Gold, Roberts Silver, Knothe","Richest Ore Occurs Near The Hanging Wall.","Rhyolite","Andesite"
"369","Herschel Mine",31.70485,-110.07316,NA,"United States","Cochise","M","Lead","Manganese","","Unknown","Replacement","S","Past Producer","Copper, Gold","","Underground","","Fissures Associated With Lucky Cuss Fault Nne, And Ne Fissure System. Fault Mineralized Near Junction With Fissures","Limestone",""
"370","Herschel Mine",31.70485,-110.07316,NA,"United States","Cochise","M","Gold","Manganese","","Unknown","Replacement","S","Past Producer","Copper, Gold","","Underground","","Fissures Associated With Lucky Cuss Fault Nne, And Ne Fissure System. Fault Mineralized Near Junction With Fissures","Limestone",""
"371","Herschel Mine",31.70485,-110.07316,NA,"United States","Cochise","M","Copper","Manganese","","Unknown","Replacement","S","Past Producer","Copper, Gold","","Underground","","Fissures Associated With Lucky Cuss Fault Nne, And Ne Fissure System. Fault Mineralized Near Junction With Fissures","Limestone",""
"372","Tribute  Mine",31.70263,-110.06983,NA,"United States","Cochise","M","Lead","Molybdenum","Vanadium, Zinc","Unknown","Replacement","S","Past Producer","Copper, Molybdenite","","","","Northeast Trending Fissures, Intersection With N Trending Dike","Shale","Diorite"
"373","Tribute  Mine",31.70263,-110.06983,NA,"United States","Cochise","M","Gold","Molybdenum","Vanadium, Zinc","Unknown","Replacement","S","Past Producer","Copper, Molybdenite","","","","Northeast Trending Fissures, Intersection With N Trending Dike","Shale","Diorite"
"374","Tribute  Mine",31.70263,-110.06983,NA,"United States","Cochise","M","Copper","Molybdenum","Vanadium, Zinc","Unknown","Replacement","S","Past Producer","Copper, Molybdenite","","","","Northeast Trending Fissures, Intersection With N Trending Dike","Shale","Diorite"
"375","San Diego Mine",31.69485,-110.04594,NA,"United States","Cochise","M","Lead","Silver","","Unknown","Replacement","S","Producer","Galena, Silver","","Underground","","Fault Fissure, Ne Trend, Variable Dip","Quartzite,Shale,Sandstone",""
"376","Montezuma  Mine",31.69124,-110.11538,NA,"United States","Cochise","M","Gold","","","Unknown","Replacement","S","Past Producer","Gold, Silver","","","","Fault Fissure","Quartz Latite","Quartz Latite"
"377","Silver Plume Mine",31.68652,-110.07094,NA,"United States","Cochise","M","Lead","","","Unknown","Replacement","S","Past Producer","","","Underground","Emerald and Silver Plume Mine Group","N-S Dike; Fissure, N20e, Dip 76w","Limestone",""
"378","Captain Jack Claims",33.05621,-110.37235,NA,"United States","Graham","M","Iron","","","Unknown","Replacement","N","Occurrence","Magnetite, Specularite","","Surface/Underground","","Contact Between Diabase And Limestone","Limestone","Diabase"
"379","Captain Jack Claims",33.05621,-110.37235,NA,"United States","Graham","M","Gold","","","Unknown","Replacement","N","Occurrence","Magnetite, Specularite","","Surface/Underground","","Contact Between Diabase And Limestone","Limestone","Diabase"
"380","Captain Jack Claims",33.05621,-110.37235,NA,"United States","Graham","M","Copper","","","Unknown","Replacement","N","Occurrence","Magnetite, Specularite","","Surface/Underground","","Contact Between Diabase And Limestone","Limestone","Diabase"
"381","Gold Mountain Mine",32.6215,-110.35428,NA,"United States","Graham","M","Gold","","Iron","Unknown","","S","Past Producer","Gold, Hematite, Pyrite","","","","Vein Conforms To Rhyolite","Rhyolite","Andesite"
"382","Silver Spar Prospect",33.01704,-110.36624,NA,"United States","Graham","M","Copper","Silver","Lead, Antimony","Unknown","","S","Past Producer","Bornite, Malachite","Barite, Fluorite, Quartz","","","","Andesite","Quartz Monzonite"
"383","Silver Hill Mine",35.41112,-114.20219,NA,"United States","Mohave","M","Lead","Silver, Gold, Copper, Zinc","Molybdenum","Unknown","","S","Past Producer","Galena, Limonite, Molybdenite, Pyrite","Calcite, Quartz","","","","Amphibolite","Granite"
"384","Safford Deposit",32.94177,-109.60565,NA,"United States","Graham","M","Copper","Zinc, Lead, Silver, Gold","","Surface-Underground","Porphyry Cu","N","Past Producer","Antlerite, Bornite, Brochantite, Chalcanthite, Chalcocite, Chalcopyrite, Chrysocolla, Covellite, Cuprite, Galena, Gold, Malachite, Molybdenite, Pyrite, Sphalerite, Tenorite, Tetrahedrite, Turquoise","Alunite, Goethite, Hematite, Jarosite, Limonite, Magnetite, Quartz","Surface/Underground","Kennecott Safford, Lone Star Mine","Ne Trending Shears Intruded By Dikes","Diorite,Rhyolite,Dacite,Latite","Quartz Monzonite,Diorite"
"385","Eureka Mine",31.42875,-110.3801,NA,"United States","Cochise","M","Lead","","","Unknown","Vein","S","Producer","","","","Azurite, Tenorite, Connelite, Lotus","","Shale,Sandstone",""
"386","Eureka Mine",31.42875,-110.3801,NA,"United States","Cochise","M","Copper","","","Unknown","Vein","S","Producer","","","","Azurite, Tenorite, Connelite, Lotus","","Shale,Sandstone",""
"387","Eureka Mine",31.42875,-110.3801,NA,"United States","Cochise","M","Gold","","","Unknown","Vein","S","Producer","","","","Azurite, Tenorite, Connelite, Lotus","","Shale,Sandstone",""
"388","Cold Spring Prospect",33.03177,-110.32068,NA,"United States","Graham","M","Zinc","","Antimony","Unknown","Replacement","N","Occurrence","Chalcopyrite, Sphalerite, Stibnite","Calcite","","","Some Beds Are Thoroughly Altered, Others Are Not","Limestone","Quartz Monzonite"
"389","Cold Spring Prospect",33.03177,-110.32068,NA,"United States","Graham","M","Copper","","Antimony","Unknown","Replacement","N","Occurrence","Chalcopyrite, Sphalerite, Stibnite","Calcite","","","Some Beds Are Thoroughly Altered, Others Are Not","Limestone","Quartz Monzonite"
"390","Soldier Prospect",33.0376,-110.3429,NA,"United States","Graham","M","Copper","","","Unknown","Replacement","N","Occurrence","","Actinolite, Garnet, Quartz","Underground","","","Limestone","Mafic Intrusive Rock"
"391","Bitter Spring Prospect",33.08787,-110.31235,NA,"United States","Graham","M","Gold","","","Unknown","Replacement","N","Occurrence","Magnetite, Malachite, Pyrite","","","","Contact Between Limestone And Rhyolite","Limestone","Andesite"
"392","Bitter Spring Prospect",33.08787,-110.31235,NA,"United States","Graham","M","Copper","","","Unknown","Replacement","N","Occurrence","Magnetite, Malachite, Pyrite","","","","Contact Between Limestone And Rhyolite","Limestone","Andesite"
"393","Bitter Spring Prospect",33.08787,-110.31235,NA,"United States","Graham","M","Iron","","","Unknown","Replacement","N","Occurrence","Magnetite, Malachite, Pyrite","","","","Contact Between Limestone And Rhyolite","Limestone","Andesite"
"394","Zaleski  Mine",31.3632,-110.25622,NA,"United States","Cochise","M","Gold","","Lead","Unknown","","S","Past Producer","Gold, Lead, Scheelite","","","","","Quartz Monzonite",""
"395","Laxton Property",35.08113,-113.85496,NA,"United States","Mohave","M","Copper","Molybdenum, Lead, Zinc","","Unknown","","N","Occurrence","Chalcocite, Chalcopyrite, Galena, Molybdenite, Scheelite, Sphalerite, Wolframite","","","","Pyritic Quartz Veins, Wolframite Generally Occurs Near Hanging Wall","Gneiss","Quartz Monzonite"
"396","Black Mountain Claims",33.857,-113.05465,NA,"United States","Maricopa","M","Uranium","","","Unknown","Replacement","N","Occurrence","Carnotite","Gypsum","Surface","Black Mountain Vanadium Claims","Fracture Surfaces","Tuff","Basalt"
"397","New York-Plomosa Prospect",33.63978,-114.13134,NA,"United States","La Paz","M","Gold","","","Unknown","Placer","N","Occurrence","Gold","","","","","Schist,Carbonate,Granite",""
"398","Mudersbach Copper Camp",33.80533,-114.05995,NA,"United States","La Paz","M","Copper","Iron","","Unknown","Replacement","S","Producer","Bornite, Chalcopyrite, Gold, Hematite, Pyrite, Silver, Specularite","Calcite","","Excelsior Minee","","Limestone","Quartz Monzonite"
"399","Mudersbach Copper Camp",33.80533,-114.05995,NA,"United States","La Paz","M","Gold","Iron","","Unknown","Replacement","S","Producer","Bornite, Chalcopyrite, Gold, Hematite, Pyrite, Silver, Specularite","Calcite","","Excelsior Minee","","Limestone","Quartz Monzonite"
"400","Bryan Mountain Prospect",32.34288,-113.38992,NA,"United States","Yuma","M","Copper","","Iron","Unknown","Vein","N","Occurrence","Hematite, Magnetite, Malachite","Epidote, Quartz, Sericite","Underground","","","Schist","Pegmatite"
"401","Orphan Lode Mine",36.07139,-112.15,NA,"United States","Coconino","M","Uranium","","Zinc, Cobalt, Antimony, Lead, Nickel, Molybdenum, Manganese, Magnesite, Gold, Iron","Underground","","L","Past Producer","Chalcocite, Galena, Tennantite, Torbernite, Uraninite","Aragonite, Barite, Calcite, Dolomite, Gypsum, Plagioclase, Quartz, Siderite","Underground","Western Gold and Uranium, Golden Crown Mining Co., Orphan N.P.2004Orphan","Strongest Mineralization In Most Permeable Areas Around Periphery Of Pipe","Shale,Sandstone,Limestone",""
"402","Orphan Lode Mine",36.07139,-112.15,NA,"United States","Coconino","M","Copper","","Zinc, Cobalt, Antimony, Lead, Nickel, Molybdenum, Manganese, Magnesite, Gold, Iron","Underground","","L","Past Producer","Chalcocite, Galena, Tennantite, Torbernite, Uraninite","Aragonite, Barite, Calcite, Dolomite, Gypsum, Plagioclase, Quartz, Siderite","Underground","Western Gold and Uranium, Golden Crown Mining Co., Orphan N.P.2004Orphan","Strongest Mineralization In Most Permeable Areas Around Periphery Of Pipe","Shale,Sandstone,Limestone",""
"403","Iron Mountain No. 8  Claim",34.12757,-110.71986,NA,"United States","Navajo","M","Iron","","","Unknown","Sedimentary","N","Occurrence","Hematite","","","","","Quartzite,Chert",""
"404","Idaho Mine",35.30502,-114.13719,NA,"United States","Mohave","M","Gold","Copper, Lead, Zinc, Silver","","Unknown","Vein","S","Past Producer","Chalcopyrite, Galena, Pyrite","","Underground","","","Granite","Granite"
"405","A. B. Bell Mine",33.88535,-111.84655,NA,"United States","Maricopa","M","Gold","","","Unknown","","S","Producer","Gold","Quartz","","","Au Associated With Fine Grained Grayish Quartz In Silicified Breccia Zones.","Schist","Rhyolite"
"406","Copper Top Mine",33.8234,-111.98712,NA,"United States","Maricopa","M","Gold","Copper, Silver, Lead","","Unknown","Unknown","S","Past Producer","","","Underground","","","Schist,Rhyolite,Granite",""
"407","Evening Star & Silver Queen Mine",33.70089,-113.21493,NA,"United States","Maricopa","M","Lead","","","Unknown","Vein","S","Past Producer","","","","","","Gneiss",""
"408","Evening Star & Silver Queen Mine",33.70089,-113.21493,NA,"United States","Maricopa","M","Copper","","","Unknown","Vein","S","Past Producer","","","","","","Gneiss",""
"409","Evening Star & Silver Queen Mine",33.70089,-113.21493,NA,"United States","Maricopa","M","Gold","","","Unknown","Vein","S","Past Producer","","","","","","Gneiss",""
"410","Vulture Placers",33.82145,-112.83575,NA,"United States","Maricopa","M","Gold","","","Unknown","Placer","M","Past Producer","","","","","Small Quartz Veins In The Vicinity","Gravel","Rhyolite,Andesite"
"411","Kemple Camp",35.60057,-114.46525,NA,"United States","Mohave","M","Gold","","","Unknown","Vein","S","Past Producer","Gold","","","Gold Crown","","Granite","Volcanic Rock (Aphanitic)"
"412","Best Bet Mine",35.05753,-113.83662,NA,"United States","Mohave","M","Gold","Zinc, Copper, Lead","","Unknown","","S","Past Producer","Bornite, Chalcopyrite, Galena, Gold, Silver, Sphalerite","","","Kempf","","Gneiss","Plutonic Rock"
"413","Boulder Creek Group",35.03224,-114.07524,NA,"United States","Mohave","M","Gold","","Lead, Copper","Unknown","","S","Past Producer","Chalcopyrite, Galena, Gold, Silver","","Surface/Underground","","","Schist,Pegmatite",""
"414","Patrick & Wells Prospects",33.17065,-111.15903,NA,"United States","Pinal","M","Copper","","","Unknown","Unknown","N","Occurrence","","","","","","",""
"415","Patrick & Wells Prospects",33.17065,-111.15903,NA,"United States","Pinal","M","Gold","","","Unknown","Unknown","N","Occurrence","","","","","","",""
"416","Baker and Carr Mtn. Prospects",33.83813,-110.94653,NA,"United States","Gila","M","Iron","","","Unknown","Replacement","N","Occurrence","Hematite, Magnetite","","","","","Limestone,Dolomite","Diabase"
"417","Ajo Gunsight Mine",32.13622,-112.65879,NA,"United States","Pima","M","Gold","","Silver, Copper, Molybdenum, Tungsten","Unknown","","S","Past Producer","Gold, Silver","Calcite, Quartz","","","Stringers Along Fissure Zone","Granite","Andesite"
"418","Red Cloud  Prospect",33.83784,-112.84547,NA,"United States","Maricopa","M","Gold","Silver","","Unknown","Vein","N","Occurrence","Gold","Pyrite","Underground","","","Schist",""
"419","Bottle Spring Prospect",34.17617,-110.82709,NA,"United States","Gila","M","Iron","","","Unknown","Replacement","N","Occurrence","Hematite","","","","","Limestone","Diabase"
"420","Snakebit Mine",33.75702,-110.58986,NA,"United States","Gila","M","Uranium","Copper, Lead, Zinc","","Unknown","Vein","N","Occurrence","Chalcopyrite, Galena, Pyrite, Sphalerite","","","","Most Radioactive Rock Is Along Zone 5 To 10 Inches Thick That Follows The Stratification","Quartzite","Diabase"
"421","Dry Creek Prospect",34.21673,-110.94653,NA,"United States","Gila","M","Iron","","","Unknown","Replacement","N","Occurrence","Hematite","","","","","Limestone","Diabase"
"422","Highline Mine",33.44036,-110.80625,NA,"United States","Gila","M","Copper","Silver, Gold","","Unknown","Vein","S","Past Producer","Copper, Pyrolusite, Wad","","","","","Quartzite","Diabase"
"423","Great Gain Prospect",33.88313,-111.02764,NA,"United States","Gila","M","Uranium","","","Unknown","Vein","N","Occurrence","","Limonite","","","","Quartzite","Diabase"
"424","Fairview Mine",33.88035,-111.07681,NA,"United States","Gila","M","Uranium","","","Unknown","Vein","N","Occurrence","","","","","","Quartzite","Diabase"
"425","Cactus Mine",33.38425,-110.98237,NA,"United States","Gila","M","Copper","Silver, Gold","Lead, Zinc","Unknown","Exotic Cu","S","Past Producer","Chalcocite, Pyrite, Chrysocolla, Malachite","Limonite","Underground","Pinto Shaft, Hamilton Shaft, Brewery, Carlotta, Cactus Deposit, Carlota, Arizona National Copper Deposit, Alexander, Eder","Brecciation Along Cactus Fault. Richest Material Is Just Above Fault","Schist","Granite,Diabase"
"426","Geronimo Prospect",33.10093,-110.15511,NA,"United States","Graham","M","Gold","","","Unknown","","N","Occurrence","Chalcopyrite, Pyrite","","Surface/Underground","","","Granite","Diorite"
"427","Geronimo Prospect",33.10093,-110.15511,NA,"United States","Graham","M","Copper","","","Unknown","","N","Occurrence","Chalcopyrite, Pyrite","","Surface/Underground","","","Granite","Diorite"
"428","Fisher Prospect",32.93593,-110.23039,NA,"United States","Graham","M","Copper","","","Unknown","","N","Occurrence","Chalcocite, Chalcopyrite, Chrysocolla, Covellite","Apatite, Chlorite, Epidote","","","","Quartz Monzonite,Diorite","Granite"
"429","Fern Magnetite Prospect",33.46508,-110.96626,NA,"United States","Gila","M","Iron","","","Unknown","Replacement","N","Occurrence","Magnetite","","","","","Limestone","Diabase"
"430","Horseshoe Mine",32.91482,-109.60926,NA,"United States","Graham","M","Copper","Gold, Silver","","Unknown","Vein","S","Past Producer","Chalcopyrite, Gold","","","Lone Star Mine, Horseshoe Copper Group","","Andesite","Mafic Intrusive Rock"
"431","Elma Mine",32.23151,-109.59621,NA,"United States","Cochise","M","Copper","Silver, Gold","Molybdenum, Iron","Unknown","","S","Producer","Chalcopyrite, Magnetite","Pyrite","Underground","Tout Group, Central","Pipe-Like Body Along A Strong Shear And Fault Zone.","Limestone","Rhyolite"
