"","site_name","latitude","longitude","region","country","county","com_type","commod1","commod2","commod3","oper_type","dep_type","prod_size","dev_stat","ore","gangue","work_type","names","ore_ctrl","hrock_type","arock_type"
"1","Page Lead Mine",31.97846,-109.28036,NA,"United States","Cochise","M","Lead","","","Unknown","Unknown","S","Producer","","","","","","",""
"2","Page Lead Mine",31.97846,-109.28036,NA,"United States","Cochise","M","Silver","","","Unknown","Unknown","S","Producer","","","","","","",""
"3","Page Lead Mine",31.97846,-109.28036,NA,"United States","Cochise","M","Zinc","","","Unknown","Unknown","S","Producer","","","","","","",""
"4","Aurora Mine",35.40945,-114.18136,NA,"United States","Mohave","M","Vanadium","Silver","","Unknown","Vein","S","Past Producer","Vanadinite","","Surface/Underground","","","Granite","Granite"
"5","Aurora Mine",35.40945,-114.18136,NA,"United States","Mohave","M","Lead","Silver","","Unknown","Vein","S","Past Producer","Vanadinite","","Surface/Underground","","","Granite","Granite"
"6","Defiance Mine Apache Mine",33.53341,-110.80069,NA,"United States","Gila","M","Vanadium","Lead, Silver, Gold","","Unknown","","S","Past Producer","","","","","","",""
"7","Palmer Property",33.13342,-111.00068,NA,"United States","Pinal","M","Vanadium","","","Unknown","","N","Occurrence","","","","","","",""
"8","Palmer Property",33.13342,-111.00068,NA,"United States","Pinal","M","Zinc","","","Unknown","","N","Occurrence","","","","","","",""
"9","Palmer Property",33.13342,-111.00068,NA,"United States","Pinal","M","Copper","","","Unknown","","N","Occurrence","","","","","","",""
"10","Palmer Property",33.13342,-111.00068,NA,"United States","Pinal","M","Lead","","","Unknown","","N","Occurrence","","","","","","",""
"11","C and B Group Bywater Mine?",33.11676,-110.90069,NA,"United States","Pinal","M","Copper","","","Unknown","","S","Producer","","","","","","Limestone",""
"12","C and B Group Bywater Mine?",33.11676,-110.90069,NA,"United States","Pinal","M","Lead","","","Unknown","","S","Producer","","","","","","Limestone",""
"13","C and B Group Bywater Mine?",33.11676,-110.90069,NA,"United States","Pinal","M","Zinc","","","Unknown","","S","Producer","","","","","","Limestone",""
"14","C and B Group Bywater Mine?",33.11676,-110.90069,NA,"United States","Pinal","M","Vanadium","","","Unknown","","S","Producer","","","","","","Limestone",""
"15","Huachuca Mountains",31.43347,-110.28399,NA,"United States","Cochise","M","Tungsten","","","Unknown","","S","Past Producer","Scheelite","","","Tungsten Reef Mine","","",""
"16","San Juan Mine",31.83346,-110.384,NA,"United States","Cochise","M","Tungsten","","","Unknown","","S","Producer","Wolframite","","","","","Granite",""
"17","Falcon",33.36675,-110.85069,NA,"United States","Gila","M","Tungsten","","","Unknown","","S","Occurrence","Scheelite, Wolframite","","","","","Granite",""
"18","Almino",33.11676,-110.93402,NA,"United States","Pinal","M","Tungsten","","","Unknown","","N","Occurrence","Psilomelane","","","","","Conglomerate",""
"19","Almino",33.11676,-110.93402,NA,"United States","Pinal","M","Manganese","","","Unknown","","N","Occurrence","Psilomelane","","","","","Conglomerate",""
"20","Thurston-Hardy",32.78344,-109.25064,NA,"United States","Greenlee","M","Tungsten","","","Unknown","","N","Occurrence","","","","","","Basalt",""
"21","Thurston-Hardy",32.78344,-109.25064,NA,"United States","Greenlee","M","Manganese","","","Unknown","","N","Occurrence","","","","","","Basalt",""
"22","Lime Liln Canyon",36.66666,-114.01748,NA,"United States","Mohave","M","Tungsten","","","Unknown","","N","Occurrence","","","","","","Gneiss",""
"23","Telluride Chief  Mine",35.10919,-113.81162,NA,"United States","Mohave","M","Silver","Tungsten, Molybdenum","Copper, Zinc","Unknown","Vein","S","Past Producer","Galena, Gold, Huebnerite, Molybdenite, Pyrite, Scheelite, Silver, Sphalerite, Wolframite","","Underground","Standard Minerals, Telluride 1-9, Gold Mountain, Garnier No. 1, Si Lver Hill, Helen, Madolini & Margarent","In Quartz Veins In Fussures. Prominent System Strikes N30w, Dip Sw,  Other Strikes Ne, Dips Se","Quartz Monzonite","Pegmatite"
"24","Telluride Chief  Mine",35.10919,-113.81162,NA,"United States","Mohave","M","Gold","Tungsten, Molybdenum","Copper, Zinc","Unknown","Vein","S","Past Producer","Galena, Gold, Huebnerite, Molybdenite, Pyrite, Scheelite, Silver, Sphalerite, Wolframite","","Underground","Standard Minerals, Telluride 1-9, Gold Mountain, Garnier No. 1, Si Lver Hill, Helen, Madolini & Margarent","In Quartz Veins In Fussures. Prominent System Strikes N30w, Dip Sw,  Other Strikes Ne, Dips Se","Quartz Monzonite","Pegmatite"
"25","Zonell",35.36669,-113.46745,NA,"United States","Mohave","M","Tungsten","","","Unknown","","N","Occurrence","Scheelite","","","","","Schist",""
"26","Big Juanita Mine",31.91679,-111.58403,NA,"United States","Pima","M","Tungsten","","","Unknown","","Y","Producer","Scheelite","","","","","Quartzite",""
"27","Coronado",32.48344,-110.75068,NA,"United States","Pima","M","Tungsten","","Copper","Unknown","","Y","Past Producer","Scheelite","","","","","Schist",""
"28","Lone Valley Mine",31.91679,-111.08402,NA,"United States","Pima","M","Tungsten","Copper, Silver","","Unknown","","Y","Past Producer","Scheelite","","","","","Limestone",""
"29","Mammoth",32.56678,-110.68401,NA,"United States","Pinal","M","Tungsten","","Lead, Molybdenum","Unknown","","N","Occurrence","Wulfenite","","","","","",""
"30","Jackpot and Velma Quartzite Claims",33.75005,-114.31746,NA,"United States","La Paz","M","Tungsten","","","Unknown","","S","Past Producer","","","","","","Schist",""
"31","Blade Prospect",34.15006,-112.24824,NA,"United States","Yavapai","M","Tungsten","","","Unknown","","S","Producer","Scheelite, Wolframite","Pyrite, Quartz","Surface/Underground","","Faulting, Shearing","Quartz Monzonite","Quartz Monzonite"
"32","Warrior",34.28338,-112.83408,NA,"United States","Yavapai","M","Tungsten","","","Unknown","","S","Past Producer","Ferberite","","","","","Diorite",""
"33","Midnight Owl Mine",33.99339,-112.50824,NA,"United States","Mohave","M","Beryllium","","","Unknown","","S","Producer","Beryl","","","","","Gneiss",""
"34","Midnight Owl Mine",33.99339,-112.50824,NA,"United States","Mohave","M","Niobium (Columbium)","","","Unknown","","S","Producer","Beryl","","","","","Gneiss",""
"35","Midnight Owl Mine",33.99339,-112.50824,NA,"United States","Mohave","M","Tantalum","","","Unknown","","S","Producer","Beryl","","","","","Gneiss",""
"36","Midnight Owl Mine",33.99339,-112.50824,NA,"United States","Mohave","M","Lithium","","","Unknown","","S","Producer","Beryl","","","","","Gneiss",""
"37","Ligurta Area",32.66675,-114.30078,NA,"United States","Yuma","M","Niobium (Columbium)","","","Unknown","","N","Occurrence","","","","","","",""
"38","Ligurta Area",32.66675,-114.30078,NA,"United States","Yuma","M","Tantalum","","","Unknown","","N","Occurrence","","","","","","",""
"39","Ligurta Area",32.66675,-114.30078,NA,"United States","Yuma","M","REE","","","Unknown","","N","Occurrence","","","","","","",""
"40","Sugarloaf Prospect",33.63423,-114.31607,NA,"United States","La Paz","M","Aluminum","Lead, Molybdenum, Bismuth, Tungsten, Tin","","Unknown","","N","Occurrence","Alunite, Natroalunite","Hematite, Pyrite","","Sugar Loaf, Sugarloaf Butte Alunite, Sugarloaf Peak","","Dacite",""
"41","Royal and Deer Horn",31.37042,-110.6815,NA,"United States","Santa Cruz","M","Lead","","","Unknown","","S","Producer","Chalcopyrite, Galena, Sphalerite","","","","","Limestone",""
"42","Royal and Deer Horn",31.37042,-110.6815,NA,"United States","Santa Cruz","M","Copper","","","Unknown","","S","Producer","Chalcopyrite, Galena, Sphalerite","","","","","Limestone",""
"43","Royal and Deer Horn",31.37042,-110.6815,NA,"United States","Santa Cruz","M","Zinc","","","Unknown","","S","Producer","Chalcopyrite, Galena, Sphalerite","","","","","Limestone",""
"44","Royal and Deer Horn",31.37042,-110.6815,NA,"United States","Santa Cruz","M","Silver","","","Unknown","","S","Producer","Chalcopyrite, Galena, Sphalerite","","","","","Limestone",""
"45","Question Lode - Gunbolt  Prospect",33.7834,-112.33407,NA,"United States","Maricopa","M","Lead","Silver, Copper, Gold","Zinc","Unknown","","S","Past Producer","Pyrite","Quartz","","","","Andesite",""
"46","Katchina Group",31.75013,-110.75068,NA,"United States","Pima","M","Copper","","","Unknown","","S","Producer","Malachite","","","","","Limestone",""
"47","Star No. 1 Mine",31.84402,-110.37011,NA,"United States","Cochise","M","Uranium","","Gold","Unknown","Contact Metamorphic","S","Producer","Gold","","","Bluestone","","Granite","Granite"
"48","Blue Knob Nos 30, 31, 32 Prospects",33.61396,-112.84881,NA,"United States","Maricopa","M","Copper","","","Unknown","","N","Occurrence","Chrysocolla, Malachite","","","","","Rhyolite",""
"49","Blue Knob Nos 30, 31, 32 Prospects",33.61396,-112.84881,NA,"United States","Maricopa","M","Iron","","","Unknown","","N","Occurrence","Chrysocolla, Malachite","","","","","Rhyolite",""
"50","Blue Knob Nos 30, 31, 32 Prospects",33.61396,-112.84881,NA,"United States","Maricopa","M","Platinum","","","Unknown","","N","Occurrence","Chrysocolla, Malachite","","","","","Rhyolite",""
"51","Blue Knob Nos 30, 31, 32 Prospects",33.61396,-112.84881,NA,"United States","Maricopa","M","Gold","","","Unknown","","N","Occurrence","Chrysocolla, Malachite","","","","","Rhyolite",""
"52","Blue Knob Nos 30, 31, 32 Prospects",33.61396,-112.84881,NA,"United States","Maricopa","M","Silver","","","Unknown","","N","Occurrence","Chrysocolla, Malachite","","","","","Rhyolite",""
"53","Bowie Claims",32.10013,-109.41731,NA,"United States","Cochise","M","Silver","","","Unknown","","N","Occurrence","Galena, Sphalerite, Tetrahedrite","","","","","Quartzite",""
"54","Bowie Claims",32.10013,-109.41731,NA,"United States","Cochise","M","Zinc","","","Unknown","","N","Occurrence","Galena, Sphalerite, Tetrahedrite","","","","","Quartzite",""
"55","Rainbow Silver Mine",33.14203,-111.20764,NA,"United States","Pinal","M","Silver","","","Unknown","Vein","S","Producer","Chalcopyrite, Galena, Tetrahedrite","","","","","Diabase,Schist",""
"56","Rainbow Silver Mine",33.14203,-111.20764,NA,"United States","Pinal","M","Copper","","","Unknown","Vein","S","Producer","Chalcopyrite, Galena, Tetrahedrite","","","","","Diabase,Schist",""
"57","Rainbow Silver Mine",33.14203,-111.20764,NA,"United States","Pinal","M","Lead","","","Unknown","Vein","S","Producer","Chalcopyrite, Galena, Tetrahedrite","","","","","Diabase,Schist",""
"58","Jeanene Claim Group",34.77447,-113.86468,NA,"United States","Mohave","M","Beryllium","","","Unknown","","N","Occurrence","Beryl","","","","","Pegmatite",""
"59","Mohave Butte Shaft",35.17502,-114.43414,NA,"United States","Mohave","M","Silver","","","Unknown","","S","Past Producer","Gold, Hematite","Fluorite","","","","Andesite",""
"60","Mohave Butte Shaft",35.17502,-114.43414,NA,"United States","Mohave","M","Gold","","","Unknown","","S","Past Producer","Gold, Hematite","Fluorite","","","","Andesite",""
"61","Copper Head Mine",34.61671,-113.628,NA,"United States","Mohave","M","Silver","Zinc","","Unknown","","M","Past Producer","Chalcopyrite, Galena, Sphalerite","","","","","Gneiss,Pegmatite,Granite",""
"62","Copper Head Mine",34.61671,-113.628,NA,"United States","Mohave","M","Copper","Zinc","","Unknown","","M","Past Producer","Chalcopyrite, Galena, Sphalerite","","","","","Gneiss,Pegmatite,Granite",""
"63","Copper Head Mine",34.61671,-113.628,NA,"United States","Mohave","M","Lead","Zinc","","Unknown","","M","Past Producer","Chalcopyrite, Galena, Sphalerite","","","","","Gneiss,Pegmatite,Granite",""
"64","Triples Or Copper King",34.38338,-112.46742,NA,"United States","Yavapai","M","Copper","","","Unknown","","S","Producer","Chalcopyrite","","","","","Mica Schist,Rhyolite,Andesite",""
"65","Triples Or Copper King",34.38338,-112.46742,NA,"United States","Yavapai","M","Silver","","","Unknown","","S","Producer","Chalcopyrite","","","","","Mica Schist,Rhyolite,Andesite",""
"66","Tennessee - Schuykill",35.41668,-114.18413,NA,"United States","Mohave","M","Silver","","","Unknown","","L","Producer","Cerargyrite, Chalcocite, Malachite","","","","","Granite",""
"67","Tennessee - Schuykill",35.41668,-114.18413,NA,"United States","Mohave","M","Copper","","","Unknown","","L","Producer","Cerargyrite, Chalcocite, Malachite","","","","","Granite",""
"68","Tennessee - Schuykill",35.41668,-114.18413,NA,"United States","Mohave","M","Zinc","","","Unknown","","L","Producer","Cerargyrite, Chalcocite, Malachite","","","","","Granite",""
"69","Kansas - New York Mine",31.40014,-110.71734,NA,"United States","Santa Cruz","M","Lead","","","Unknown","","M","Producer","Sphalerite","","","","","Quartzite,Limestone",""
"70","Kansas - New York Mine",31.40014,-110.71734,NA,"United States","Santa Cruz","M","Zinc","","","Unknown","","M","Producer","Sphalerite","","","","","Quartzite,Limestone",""
"71","Evelyn",34.53337,-114.16746,NA,"United States","Mohave","M","Tungsten","","","Unknown","","S","Past Producer","Scheelite","","","Includes Little Maud, Gold Crown","Fracture Zones","Gneiss",""
"72","Evelyn",34.53337,-114.16746,NA,"United States","Mohave","M","Gold","","","Unknown","","S","Past Producer","Scheelite","","","Includes Little Maud, Gold Crown","Fracture Zones","Gneiss",""
"73","Costello Claims",31.75013,-109.83398,NA,"United States","Cochise","M","Lead","","","Unknown","Replacement","S","Producer","Smithsonite","","","","","Limestone",""
"74","Costello Claims",31.75013,-109.83398,NA,"United States","Cochise","M","Zinc","","","Unknown","Replacement","S","Producer","Smithsonite","","","","","Limestone",""
"75","Costello Claims",31.75013,-109.83398,NA,"United States","Cochise","M","Copper","","","Unknown","Replacement","S","Producer","Smithsonite","","","","","Limestone",""
"76","Copper House Mine",36.1975,-113.43301,NA,"United States","Mohave","M","Copper","","","Unknown","","N","Occurrence","Malachite","","","","","Limestone",""
"77","Irene Vein, Old Doughboy",33.48341,-110.76736,NA,"United States","Gila","M","Lead","","","Unknown","","S","Producer","Galena, Hemimorphite, Smithsonite, Sphalerite, Willemite","","","","","Diabase,Quartzite","Diabase"
"78","Irene Vein, Old Doughboy",33.48341,-110.76736,NA,"United States","Gila","M","Zinc","","","Unknown","","S","Producer","Galena, Hemimorphite, Smithsonite, Sphalerite, Willemite","","","","","Diabase,Quartzite","Diabase"
"79","Gran Copper",33.11287,-111.04987,NA,"United States","Pinal","M","Copper","","Zinc, Lead","Unknown","","N","Occurrence","Chalcocite, Chrysocolla","","","Black Copper Group","","Granite",""
"80","Emerald Isle Deposit",35.36669,-114.2008,NA,"United States","Mohave","M","Copper","","","Unknown","","M","Producer","Chrysocolla","","","","","Conglomerate",""
"81","Bullis - Sandsman Group",33.00011,-110.16734,NA,"United States","Graham","M","Lead","Zinc, Silver","","Unknown","","S","Past Producer","Anglesite, Galena","","","","","Quartzite,Limestone","Rhyolite"
"82","Antler Mine",34.8667,-113.86746,NA,"United States","Mohave","M","Copper","Lead, Silver","","Unknown","","M","Past Producer","Chalcanthite, Chalcopyrite, Covellite, Galena, Magnetite, Malachite, Marmatite, Pyrite, Pyrrhotite, Sphalerite","Anthophyllite, Mica, Quartz, Tremolite","","","Faulting","Schist,Pegmatite,Granite",""
"83","Antler Mine",34.8667,-113.86746,NA,"United States","Mohave","M","Zinc","Lead, Silver","","Unknown","","M","Past Producer","Chalcanthite, Chalcopyrite, Covellite, Galena, Magnetite, Malachite, Marmatite, Pyrite, Pyrrhotite, Sphalerite","Anthophyllite, Mica, Quartz, Tremolite","","","Faulting","Schist,Pegmatite,Granite",""
"84","Santa Catalina Copper Deposit",32.49178,-110.75068,NA,"United States","Pima","M","Lead","","","Unknown","","M","Producer","Bornite, Chalcopyrite","","","","","Quartzite",""
"85","Santa Catalina Copper Deposit",32.49178,-110.75068,NA,"United States","Pima","M","Copper","","","Unknown","","M","Producer","Bornite, Chalcopyrite","","","","","Quartzite",""
"86","Standard Copper Prospect",34.05006,-112.51741,NA,"United States","Yavapai","M","Copper","","","Unknown","","S","Producer","Chrysocolla","","","","","Granite",""
"87","Shannon Copper Belle Mine",31.75013,-109.85065,NA,"United States","Cochise","M","Copper","","","Unknown","","M","Producer","Bornite, Chalcopyrite, Cuprite, Galena","","","","","Quartzite,Limestone",""
"88","Shannon Copper Belle Mine",31.75013,-109.85065,NA,"United States","Cochise","M","Lead","","","Unknown","","M","Producer","Bornite, Chalcopyrite, Cuprite, Galena","","","","","Quartzite,Limestone",""
"89","San Juan Mine",31.88291,-109.98344,NA,"United States","Cochise","M","Zinc","Lead, Silver","Bismuth, Beryllium, Lithium, Gallium, Cadmium","Unknown","","M","Past Producer","Galena, Sphalerite","Calcite, Epidote, Garnet","Underground","Gordon Mine, San Juan Group","","Limestone",""
"90","Twentieth Century Mine",33.26676,-110.91736,NA,"United States","Gila","M","Tungsten","","","Unknown","","N","Occurrence","Galena, Huebnerite, Sphalerite","","","","","Schist","Diorite"
"91","Twentieth Century Mine",33.26676,-110.91736,NA,"United States","Gila","M","Zinc","","","Unknown","","N","Occurrence","Galena, Huebnerite, Sphalerite","","","","","Schist","Diorite"
"92","Twentieth Century Mine",33.26676,-110.91736,NA,"United States","Gila","M","Lead","","","Unknown","","N","Occurrence","Galena, Huebnerite, Sphalerite","","","","","Schist","Diorite"
"93","Dixie Copper Mine",33.66674,-111.76739,NA,"United States","Maricopa","M","Copper","","","Unknown","","S","Past Producer","Chalcopyrite","","","","","Schist",""
"94","Bonanza",33.92727,-113.58799,NA,"United States","La Paz","M","Copper","","Tungsten, Molybdenum, Lead","Unknown","","S","Past Producer","Chalcocite, Chalcopyrite","","","","","Schist",""
"95","Tungsten No. 1 Mine",33.37091,-110.88402,NA,"United States","Gila","M","Tungsten","","","Unknown","","N","Occurrence","Galena, Scheelite","","","","","Diabase",""
"96","Tungsten No. 1 Mine",33.37091,-110.88402,NA,"United States","Gila","M","Molybdenum","","","Unknown","","N","Occurrence","Galena, Scheelite","","","","","Diabase",""
"97","Tungsten No. 1 Mine",33.37091,-110.88402,NA,"United States","Gila","M","Lead","","","Unknown","","N","Occurrence","Galena, Scheelite","","","","","Diabase",""
"98","Compensation",32.76955,-109.26175,NA,"United States","Greenlee","M","Gold","","","Unknown","","N","Occurrence","Argentite","","","","","",""
"99","Compensation",32.76955,-109.26175,NA,"United States","Greenlee","M","Silver","","","Unknown","","N","Occurrence","Argentite","","","","","",""
"100","Sol Mine",32.80289,-109.54509,NA,"United States","Graham","M","Copper","","","Unknown","","N","Occurrence","Chalcopyrite","","","","","Monzonite,Andesite",""
"101","Ben Hur",32.95982,-109.63122,NA,"United States","Graham","M","Copper","","","Unknown","Vein","U","Occurrence","Chrysocolla","","","","Shear Zone, (N75e, 80s), Along Contact","Andesite","Mafic Intrusive Rock,Andesite"
"102","Commerce",32.92511,-109.0812,NA,"United States","Greenlee","M","Copper","","","Unknown","","N","Occurrence","Chrysocolla","","","Mayflower","","Volcanic Rock (Aphanitic)",""
"103","Pluto Group",32.71539,-109.47565,NA,"United States","Graham","M","Uranium","","","Unknown","","N","Occurrence","Carnotite","","","","","Clay, Mud,Tuff",""
"104","Red Bird Mine",32.13762,-109.9701,NA,"United States","Cochise","M","Silica","","","Unknown","Vein","S","Past Producer","Gold, Quartz","","","Gold Coin","","Shale,Siltstone,Sandstone,Conglomerate",""
"105","Red Bird Mine",32.13762,-109.9701,NA,"United States","Cochise","M","Gold","","","Unknown","Vein","S","Past Producer","Gold, Quartz","","","Gold Coin","","Shale,Siltstone,Sandstone,Conglomerate",""
"106","Red Bird Mine",32.13762,-109.9701,NA,"United States","Cochise","M","Silver","","","Unknown","Vein","S","Past Producer","Gold, Quartz","","","Gold Coin","","Shale,Siltstone,Sandstone,Conglomerate",""
"107","Best Claim",32.79039,-109.55898,NA,"United States","Graham","M","Uranium","","","Unknown","","N","Prospect","","","","","","Granite","Granite"
"108","Name Unknown",32.62928,-109.90344,NA,"United States","Graham","M","Gold","","","Unknown","Vein","N","Occurrence","","Quartz","","","","Gneiss","Gneiss"
"109","Name Unknown",32.46122,-109.8201,NA,"United States","Graham","M","Copper","","","Unknown","Vein","N","Occurrence","","","Underground","","","Volcanic Rock (Aphanitic)","Volcanic Rock (Aphanitic)"
"110","Casey Copper Prospect",32.22095,-109.64509,NA,"United States","Cochise","M","Copper","","","Unknown","Replacement","N","Occurrence","Chalcopyrite","","","","","Limestone","Volcanic Rock (Aphanitic)"
"111","Ram Claims",32.20706,-109.48815,NA,"United States","Cochise","M","Tungsten","","","Unknown","","N","Prospect","Scheelite","Epidote, Quartz","","","","Schist","Mafic Intrusive Rock"
"112","Gold Farm Claim",32.23762,-109.60482,NA,"United States","Cochise","M","Gold","Lead","","Unknown","Vein","Y","Past Producer","Galena, Pyrite","Quartz","","","","Granite","Plutonic Rock,Granite"
"113","Sunrise Prospect",32.24734,-109.57565,NA,"United States","Cochise","M","Gold","","","Unknown","Vein","N","Occurrence","Gold","Quartz","","","","Granite","Granite"
"114","Gold Ridge Mine",32.19734,-109.60343,NA,"United States","Cochise","M","Gold","Copper","","Unknown","Vein","S","Past Producer","Chalcopyrite, Galena, Pyrite","Quartz","","Casey, Juniper","Veins Along Fault Separating Limestone And Shale From Granite","Shale,Limestone,Granite","Granite"
"115","Gold Ridge Mine",32.19734,-109.60343,NA,"United States","Cochise","M","Lead","Copper","","Unknown","Vein","S","Past Producer","Chalcopyrite, Galena, Pyrite","Quartz","","Casey, Juniper","Veins Along Fault Separating Limestone And Shale From Granite","Shale,Limestone,Granite","Granite"
"116","Gold Ridge Mine",32.19734,-109.60343,NA,"United States","Cochise","M","Silver","Copper","","Unknown","Vein","S","Past Producer","Chalcopyrite, Galena, Pyrite","Quartz","","Casey, Juniper","Veins Along Fault Separating Limestone And Shale From Granite","Shale,Limestone,Granite","Granite"
"117","Howell Mine",32.23206,-109.56454,NA,"United States","Cochise","M","Gold","Lead","","Unknown","Vein","S","Past Producer","Galena, Pyrite","Chlorite","","","","Granite","Granite"
"118","Name Unknown",32.07652,-109.36592,NA,"United States","Cochise","M","Copper","","","Unknown","Vein","S","Past Producer","","Pyrite, Quartz","","","Quartz Vein In Shear Zone","Granite","Granite"
"119","Valley View Claims",32.28345,-109.67565,NA,"United States","Cochise","M","Uranium","","","Unknown","","N","Occurrence","","Quartz","","","","Granite","Granite"
"120","Spike-E Hills Prospect",32.30845,-109.82149,NA,"United States","Cochise","M","Copper","","","Unknown","","N","Occurrence","Chalcopyrite","Pyrite","","","","Schist",""
"121","Dos Cabezas Placers",32.18345,-109.59648,NA,"United States","Cochise","M","Gold","","","Unknown","","S","Past Producer","Gold","","","","","Gravel,Alluvium",""
"122","Canuk Group",32.71817,-109.44787,NA,"United States","Graham","M","Uranium","","","Unknown","","N","Occurrence","Carnotite","","","","","Clay, Mud,Tuff",""
"123","Florence",34.50005,-112.35074,NA,"United States","Yavapai","M","Antimony","","","Unknown","","N","Occurrence","","","","","","",""
"124","Florence",34.50005,-112.35074,NA,"United States","Yavapai","M","Arsenic","","","Unknown","","N","Occurrence","","","","","","",""
"125","Florence",34.50005,-112.35074,NA,"United States","Yavapai","M","Copper","","","Unknown","","N","Occurrence","","","","","","",""
"126","Green Monster Mine",32.63288,-111.3957,NA,"United States","Pinal","M","Gold","","","Unknown","Unknown","U","Occurrence","","","","","","",""
"127","Green Monster Mine",32.63288,-111.3957,NA,"United States","Pinal","M","Silver","","","Unknown","Unknown","U","Occurrence","","","","","","",""
"128","Green Monster Mine",32.63288,-111.3957,NA,"United States","Pinal","M","Copper","","","Unknown","Unknown","U","Occurrence","","","","","","",""
"129","Branch Manganese Mine",32.82399,-110.74736,NA,"United States","Pinal","M","Manganese","","","Unknown","Unknown","S","Past Producer","","","","","","",""
"130","Santa Maria Mine",32.7851,-110.74429,NA,"United States","Pinal","M","Manganese","","","Unknown","Vein","N","Occurrence","","","","","","",""
"131","Silica Occurrence",33.53757,-112.01323,NA,"United States","Maricopa","M","Silica","","","Unknown","","N","Occurrence","Quartz","","","","","Schist",""
"132","Copperopolis Mine",31.96346,-109.26203,NA,"United States","Cochise","M","Silver","","","Unknown","Unknown","N","Occurrence","","","","","","Limestone,Rhyolite",""
"133","Copperopolis Mine",31.96346,-109.26203,NA,"United States","Cochise","M","Gold","","","Unknown","Unknown","N","Occurrence","","","","","","Limestone,Rhyolite",""
"134","Copperopolis Mine",31.96346,-109.26203,NA,"United States","Cochise","M","Copper","","","Unknown","Unknown","N","Occurrence","","","","","","Limestone,Rhyolite",""
"135","Copper Ledge Mine",32.35343,-112.83907,NA,"United States","Pima","M","Copper","","","Unknown","","S","Producer","","","Underground","","","Alluvium",""
"136","Reagan Camp Prospects",33.05426,-110.81208,NA,"United States","Gila","M","Lead","","","Unknown","Vein","S","Producer","","","","","","Limestone","Porphyry"
"137","Mex Hill Mine",33.86451,-111.89072,NA,"United States","Maricopa","M","Gold","Silver","","Unknown","Vein","S","Past Producer","Copper","","Underground","Mexican Hill Mine","","Slate,Schist","Rhyolite"
"138","Mex Hill Mine",33.86451,-111.89072,NA,"United States","Maricopa","M","Copper","Silver","","Unknown","Vein","S","Past Producer","Copper","","Underground","Mexican Hill Mine","","Slate,Schist","Rhyolite"
"139","Maricopa Mine",33.96701,-111.46071,NA,"United States","Maricopa","M","Mercury","","","Unknown","","S","Producer","Cinnabar","Limonite, Quartz","","","","Schist",""
"140","Copper Dike Group",33.00566,-110.35679,NA,"United States","Graham","M","Copper","","","Unknown","","N","Occurrence","","","","","","Andesite","Granite"
"141","Renfro Antimony Prospect",34.03756,-112.14962,NA,"United States","Maricopa","M","Antimony","","","Unknown","Vein","N","Occurrence","Stibnite","","","","","Schist",""
"142","Mingus Mountain Copper Prospect",34.63672,-112.1388,NA,"United States","Yavapai","M","Copper","","","Unknown","Vein","N","Occurrence","Chalcopyrite, Pyrite","","Underground","","","Schist",""
"143","Mingus Mountain Copper Prospect",34.63672,-112.1388,NA,"United States","Yavapai","M","Silver","","","Unknown","Vein","N","Occurrence","Chalcopyrite, Pyrite","","Underground","","","Schist",""
"144","Mingus Mountain Copper Prospect",34.63672,-112.1388,NA,"United States","Yavapai","M","Gold","","","Unknown","Vein","N","Occurrence","Chalcopyrite, Pyrite","","Underground","","","Schist",""
"145","Pomona Mine",32.58899,-112.12961,NA,"United States","Pinal","M","Silver","Vanadium, Gold","Molybdenum, Zinc","Unknown","Vein","S","Past Producer","","","","","","Limestone","Rhyolite"
"146","Pomona Mine",32.58899,-112.12961,NA,"United States","Pinal","M","Lead","Vanadium, Gold","Molybdenum, Zinc","Unknown","Vein","S","Past Producer","","","","","","Limestone","Rhyolite"
"147","Silver Lake Mine",32.55621,-112.12044,NA,"United States","Pinal","M","Zinc","Copper, Gold","","Unknown","","S","Past Producer","Smithsonite","","","","","Limestone",""
"148","Silver Lake Mine",32.55621,-112.12044,NA,"United States","Pinal","M","Lead","Copper, Gold","","Unknown","","S","Past Producer","Smithsonite","","","","","Limestone",""
"149","Man's Dream Mine",32.22011,-112.17655,NA,"United States","Pima","M","Copper","Silver","","Unknown","","S","Producer","Copper","","","Calloway","Along Fractures In Shear Zone","Rhyolite",""
"150","Brownell Mine",32.24817,-112.13933,NA,"United States","Pima","M","Silver","Gold","","Unknown","","S","Producer","Copper, Hematite, Pyrite","","Underground","Century-Chief, Index Groups, Dandy","Fractures In Mesozoic Rocks, At Or Near Contact Of Rhyolite And Andesite","Rhyolite","Granite"
"151","Brownell Mine",32.24817,-112.13933,NA,"United States","Pima","M","Copper","Gold","","Unknown","","S","Producer","Copper, Hematite, Pyrite","","Underground","Century-Chief, Index Groups, Dandy","Fractures In Mesozoic Rocks, At Or Near Contact Of Rhyolite And Andesite","Rhyolite","Granite"
"152","Weldon Mine",32.06289,-112.15183,NA,"United States","Pima","M","Gold","Lead, Copper, Zinc","","Unknown","","S","Producer","","Hematite, Quartz","","","","Andesite,Granite",""
"153","Weldon Mine",32.06289,-112.15183,NA,"United States","Pima","M","Silver","Lead, Copper, Zinc","","Unknown","","S","Producer","","Hematite, Quartz","","","","Andesite,Granite",""
"154","Silver Bullion Mine",32.19539,-112.11933,NA,"United States","Pima","M","Lead","Zinc, Gold","Uranium, Molybdenum","Unknown","","S","Past Producer","Argentite, Chalcopyrite, Galena, Malachite, Pyrite, Silver, Sphalerite","Calcite, Hematite","Surface/Underground","Black Prince Mine?","Ore Along Contact Of Gneiss And Schist With Limestone. Numerous Pyr Ometosomatic Dikes","Gneiss","Quartz Monzonite"
"155","Silver Bullion Mine",32.19539,-112.11933,NA,"United States","Pima","M","Copper","Zinc, Gold","Uranium, Molybdenum","Unknown","","S","Past Producer","Argentite, Chalcopyrite, Galena, Malachite, Pyrite, Silver, Sphalerite","Calcite, Hematite","Surface/Underground","Black Prince Mine?","Ore Along Contact Of Gneiss And Schist With Limestone. Numerous Pyr Ometosomatic Dikes","Gneiss","Quartz Monzonite"
"156","Silver Bullion Mine",32.19539,-112.11933,NA,"United States","Pima","M","Silver","Zinc, Gold","Uranium, Molybdenum","Unknown","","S","Past Producer","Argentite, Chalcopyrite, Galena, Malachite, Pyrite, Silver, Sphalerite","Calcite, Hematite","Surface/Underground","Black Prince Mine?","Ore Along Contact Of Gneiss And Schist With Limestone. Numerous Pyr Ometosomatic Dikes","Gneiss","Quartz Monzonite"
"157","Horseshoe Placers",32.09233,-112.1135,NA,"United States","Pima","M","Gold","Silver","","Unknown","","S","Producer","Gold, Silver","","","Quijotoa, Golconda","Placer Gold And Silver Resting On Caliche-Cemented Gravel.","Gravel,Alluvium",""
"158","Linda Lee Claims",32.13011,-112.12766,NA,"United States","Pima","M","Gold","","Uranium","Unknown","","S","Producer","Gold, Torbernite","","Surface/Underground","","","Arkose","Granite"
"159","Papago Mine",32.09511,-113.26047,NA,"United States","Pima","M","Gold","Silver, Copper","REE, Thorium","Unknown","","S","Producer","","","","","Weak And Spotty, Yet Some Enriched Gold Values Near The Surface","Gneiss,Granite","Mafic Intrusive Rock,Pegmatite"
"160","Ajo Placers",32.35871,-112.85518,NA,"United States","Pima","M","Gold","","","Unknown","Placer","S","Producer","Gold","","","","","Gravel","Quartz Monzonite"
"161","Tom Wade Mine",34.052,-112.26157,NA,"United States","Yavapai","M","Silver","Lead, Copper","Tungsten","Unknown","Vein","S","Producer","Gold, Silver, Wolframite","Pyrite, Quartz","","4th of July Group","Faulting, Shearing","Quartz Monzonite","Rhyolite"
"162","Tom Wade Mine",34.052,-112.26157,NA,"United States","Yavapai","M","Gold","Lead, Copper","Tungsten","Unknown","Vein","S","Producer","Gold, Silver, Wolframite","Pyrite, Quartz","","4th of July Group","Faulting, Shearing","Quartz Monzonite","Rhyolite"
"163","Unnamed Prospect",32.72871,-111.78543,NA,"United States","Pinal","M","Manganese","","","Unknown","Unknown","N","Occurrence","","","","","","",""
"164","Corona Group",32.00873,-111.82377,NA,"United States","Pima","M","Gold","","","Unknown","Vein","S","Producer","Gold, Pyrite","","Underground","","","Diorite,Slate","Diorite"
"165","Unnamed Prospect",32.61677,-111.75071,NA,"United States","Pinal","M","Manganese","","","Unknown","Unknown","N","Occurrence","","","","","","",""
"166","Eyer Manganese Mine",32.60704,-111.73599,NA,"United States","Pinal","M","Manganese","","","Unknown","Vein","U","Occurrence","","","","","","Rhyolite",""
"167","Victoria Mine",31.93955,-112.83823,NA,"United States","Pima","M","Lead","Copper, Gold, Zinc","","Unknown","","S","Producer","Argentite","","","La Americana","","Schist","Granite"
"168","Victoria Mine",31.93955,-112.83823,NA,"United States","Pima","M","Silver","Copper, Gold, Zinc","","Unknown","","S","Producer","Argentite","","","La Americana","","Schist","Granite"
"169","Lucky Strike",33.18841,-111.64321,NA,"United States","Pinal","M","Gold","","","Unknown","Unknown","N","Occurrence","","","","","","",""
"170","Copper King Mine",31.89873,-111.06041,NA,"United States","Pima","M","Zinc","Lead, Silver, Gold","","Unknown","","S","Producer","Copper","","Underground","","Commercial Mineralization Apparently Was Limited To The Marble.","Limestone","Granite"
"171","Copper King Mine",31.89873,-111.06041,NA,"United States","Pima","M","Copper","Lead, Silver, Gold","","Unknown","","S","Producer","Copper","","Underground","","Commercial Mineralization Apparently Was Limited To The Marble.","Limestone","Granite"
"172","Marconi Mine",31.88068,-111.07041,NA,"United States","Pima","M","Zinc","Gold, Copper","","Unknown","","S","Producer","","","","","Mineralization Along Fracture Zones.","Arkose","Granite"
"173","Marconi Mine",31.88068,-111.07041,NA,"United States","Pima","M","Lead","Gold, Copper","","Unknown","","S","Producer","","","","","Mineralization Along Fracture Zones.","Arkose","Granite"
"174","Marconi Mine",31.88068,-111.07041,NA,"United States","Pima","M","Silver","Gold, Copper","","Unknown","","S","Producer","","","","","Mineralization Along Fracture Zones.","Arkose","Granite"
"175","Cowboy Mine",31.87234,-111.15652,NA,"United States","Pima","M","Copper","Silver","Lead, Zinc, Molybdenum","Unknown","","S","Past Producer","Copper","Pyrite","","","Fault Zone In The Granitics","Diorite","Diorite"
"176","Crown King & Tiger Mine Groups",31.86262,-111.10652,NA,"United States","Pima","M","Lead","Zinc, Gold","Molybdenum","Unknown","","S","Past Producer","Chalcopyrite, Galena, Pyrite, Sphalerite","Calcite","","Sneider Group, Esperanza Mine Group Old, Snyder","Veins Along Faults And Fractures In Sedimentary - Volcanic Formations.","Volcanic Rock (Aphanitic)","Quartz Monzonite,Diorite,Andesite"
"177","Crown King & Tiger Mine Groups",31.86262,-111.10652,NA,"United States","Pima","M","Copper","Zinc, Gold","Molybdenum","Unknown","","S","Past Producer","Chalcopyrite, Galena, Pyrite, Sphalerite","Calcite","","Sneider Group, Esperanza Mine Group Old, Snyder","Veins Along Faults And Fractures In Sedimentary - Volcanic Formations.","Volcanic Rock (Aphanitic)","Quartz Monzonite,Diorite,Andesite"
"178","Crown King & Tiger Mine Groups",31.86262,-111.10652,NA,"United States","Pima","M","Silver","Zinc, Gold","Molybdenum","Unknown","","S","Past Producer","Chalcopyrite, Galena, Pyrite, Sphalerite","Calcite","","Sneider Group, Esperanza Mine Group Old, Snyder","Veins Along Faults And Fractures In Sedimentary - Volcanic Formations.","Volcanic Rock (Aphanitic)","Quartz Monzonite,Diorite,Andesite"
"179","High Hill Mine",31.84901,-111.14763,NA,"United States","Pima","M","Lead","Gold","","Unknown","","S","Producer","","","","Twin Buttes","","Diorite","Diorite"
"180","High Hill Mine",31.84901,-111.14763,NA,"United States","Pima","M","Zinc","Gold","","Unknown","","S","Producer","","","","Twin Buttes","","Diorite","Diorite"
"181","High Hill Mine",31.84901,-111.14763,NA,"United States","Pima","M","Copper","Gold","","Unknown","","S","Producer","","","","Twin Buttes","","Diorite","Diorite"
"182","High Hill Mine",31.84901,-111.14763,NA,"United States","Pima","M","Silver","Gold","","Unknown","","S","Producer","","","","Twin Buttes","","Diorite","Diorite"
"183","Bonanza Mine",32.00262,-111.51181,NA,"United States","Pima","M","Copper","Gold, Silver, Tungsten, Molybdenum, Zinc","","Unknown","","S","Past Producer","Bornite, Chalcocite, Chalcopyrite, Chrysocolla, Covellite, Malachite, Molybdenite, Pyrite, Scheelite, Sphalerite","Barite, Diopside, Epidote, Garnet, Magnetite","","Srk, Mitchell, Calvillo, Kerr","Contact Of Limestone And Igneous Rocks","Sandstone,Limestone","Pegmatite"
"184","Whitcomb Mine",31.96595,-111.09236,NA,"United States","Pima","M","Lead","Gold","","Unknown","","S","Producer","","","","","","Volcanic Rock (Aphanitic)","Granite"
"185","Whitcomb Mine",31.96595,-111.09236,NA,"United States","Pima","M","Silver","Gold","","Unknown","","S","Producer","","","","","","Volcanic Rock (Aphanitic)","Granite"
"186","Whitcomb Mine",31.96595,-111.09236,NA,"United States","Pima","M","Copper","Gold","","Unknown","","S","Producer","","","","","","Volcanic Rock (Aphanitic)","Granite"
"187","Whitcomb Mine",31.96595,-111.09236,NA,"United States","Pima","M","Zinc","Gold","","Unknown","","S","Producer","","","","","","Volcanic Rock (Aphanitic)","Granite"
"188","Silver Helmet Mine",31.96484,-111.07902,NA,"United States","Pima","M","Lead","Copper, Gold","","Unknown","","S","Producer","Copper","","","","Along Fault Contact Of Limestone And Sedimentary Beds.","Limestone","Granite"
"189","Silver Helmet Mine",31.96484,-111.07902,NA,"United States","Pima","M","Silver","Copper, Gold","","Unknown","","S","Producer","Copper","","","","Along Fault Contact Of Limestone And Sedimentary Beds.","Limestone","Granite"
"190","Silver Lead Mine Group",32.43789,-111.53903,NA,"United States","Pima","M","Copper","","","Unknown","","S","Producer","","","","","","Limestone","Granite"
"191","Silver Lead Mine Group",32.43789,-111.53903,NA,"United States","Pima","M","Lead","","","Unknown","","S","Producer","","","","","","Limestone","Granite"
"192","Silver Lead Mine Group",32.43789,-111.53903,NA,"United States","Pima","M","Zinc","","","Unknown","","S","Producer","","","","","","Limestone","Granite"
"193","Silver Lead Mine Group",32.43789,-111.53903,NA,"United States","Pima","M","Silver","","","Unknown","","S","Producer","","","","","","Limestone","Granite"
"194","Copper Plate Mine",31.76791,-110.46345,NA,"United States","Pima","M","Copper","","","Unknown","Replacement","S","Past Producer","Quartz","","","","Ore Found As Oxidized Copper In Porous Sandstone","Shale,Siltstone,Arkose,Conglomerate","Rhyodacite"
"195","Copper Plate Mine",31.76791,-110.46345,NA,"United States","Pima","M","Silver","","","Unknown","Replacement","S","Past Producer","Quartz","","","","Ore Found As Oxidized Copper In Porous Sandstone","Shale,Siltstone,Arkose,Conglomerate","Rhyodacite"
"196","Copper Plate Mine",31.76791,-110.46345,NA,"United States","Pima","M","Silica","","","Unknown","Replacement","S","Past Producer","Quartz","","","","Ore Found As Oxidized Copper In Porous Sandstone","Shale,Siltstone,Arkose,Conglomerate","Rhyodacite"
"197","Falls Claim",31.83902,-110.76346,NA,"United States","Pima","M","Copper","Silver","","Unknown","","S","Past Producer","Copper","","","","","Limestone",""
"198","Annie Mine",31.37736,-110.70095,NA,"United States","Santa Cruz","M","Zinc","Gold, Silver, Copper","","Unknown","","S","Past Producer","Chalcopyrite, Galena, Gold, Sphalerite","","","","","Limestone",""
"199","Annie Mine",31.37736,-110.70095,NA,"United States","Santa Cruz","M","Lead","Gold, Silver, Copper","","Unknown","","S","Past Producer","Chalcopyrite, Galena, Gold, Sphalerite","","","","","Limestone",""
"200","Copper Mountain Mine",31.44514,-111.25569,NA,"United States","Santa Cruz","M","Copper","","","Unknown","","S","Past Producer","","","","Anaconda Mine Group See Record No. M000596, Armada","","",""
"201","Copper Mountain Mine",31.44514,-111.25569,NA,"United States","Santa Cruz","M","Silver","","","Unknown","","S","Past Producer","","","","Anaconda Mine Group See Record No. M000596, Armada","","",""
"202","Blue Bird Mine",31.46486,-110.53761,NA,"United States","Santa Cruz","M","Manganese","","","Unknown","","S","Past Producer","","","","De La Ossa and Lemas","","Welded Tuff","Welded Tuff"
"203","Blue Lead Mine",31.56235,-110.81512,NA,"United States","Santa Cruz","M","Lead","Gold","","Unknown","","S","Past Producer","Chalcopyrite, Gold","","","","","Diorite",""
"204","Blue Lead Mine",31.56235,-110.81512,NA,"United States","Santa Cruz","M","Silver","Gold","","Unknown","","S","Past Producer","Chalcopyrite, Gold","","","","","Diorite",""
"205","Blue Lead Mine",31.56235,-110.81512,NA,"United States","Santa Cruz","M","Copper","Gold","","Unknown","","S","Past Producer","Chalcopyrite, Gold","","","","","Diorite",""
"206","Crown Claims Nos. 1 & 2",31.93373,-110.74596,NA,"United States","Pima","M","Lead","Copper","","Unknown","","S","Producer","","","","","","Quartz Monzonite","Quartz Monzonite"
"207","Crown Claims Nos. 1 & 2",31.93373,-110.74596,NA,"United States","Pima","M","Zinc","Copper","","Unknown","","S","Producer","","","","","","Quartz Monzonite","Quartz Monzonite"
"208","Crown Claims Nos. 1 & 2",31.93373,-110.74596,NA,"United States","Pima","M","Silver","Copper","","Unknown","","S","Producer","","","","","","Quartz Monzonite","Quartz Monzonite"
"209","Genie No. 1 Claim",31.88345,-111.23597,NA,"United States","Pima","M","Uranium","","","Unknown","","N","Occurrence","","","","","","Granite",""
"210","Lena No. 1 - 11 Claims",31.88456,-111.24125,NA,"United States","Pima","M","Uranium","Zinc, Copper, Lead","","Unknown","","N","Occurrence","Chalcopyrite, Galena, Pitchblende, Pyrite, Sphalerite","Magnetite","Surface/Underground","","","Granite","Granite"
"211","Blow Out Mine",31.94123,-110.71512,NA,"United States","Pima","M","Copper","","","Unknown","","S","Producer","Chalcopyrite, Chrysocolla, Magnetite, Malachite, Pyrite","","","","Fault And Fracture Intersections.","Limestone","Granite"
"212","Blow Out Mine",31.94123,-110.71512,NA,"United States","Pima","M","Silver","","","Unknown","","S","Producer","Chalcopyrite, Chrysocolla, Magnetite, Malachite, Pyrite","","","","Fault And Fracture Intersections.","Limestone","Granite"
"213","Comstock Mine Group",31.76096,-110.7704,NA,"United States","Pima","M","Lead","Copper, Silver, Gold","","Unknown","","S","Past Producer","Lead","","","Arizona Comstock Lode","","Volcanic Rock (Aphanitic)","Quartz Latite"
"214","Brown Bird Mine Group",31.45624,-111.25319,NA,"United States","Santa Cruz","M","Gold","Copper","Lead, Zinc","Unknown","","S","Past Producer","Gold, Silver","","","Blue Wing","Contact Zone","Quartz Latite",""
"215","Brown Bird Mine Group",31.45624,-111.25319,NA,"United States","Santa Cruz","M","Silver","Copper","Lead, Zinc","Unknown","","S","Past Producer","Gold, Silver","","","Blue Wing","Contact Zone","Quartz Latite",""
"216","Collicello and Luray Mine Groups",31.46542,-110.76901,NA,"United States","Santa Cruz","M","Silver","Gold","","Unknown","","S","Past Producer","Chalcocite, Chalcopyrite, Covellite, Gold","Pyrite","","","","Granite",""
"217","Collicello and Luray Mine Groups",31.46542,-110.76901,NA,"United States","Santa Cruz","M","Copper","Gold","","Unknown","","S","Past Producer","Chalcocite, Chalcopyrite, Covellite, Gold","Pyrite","","","","Granite",""
"218","Commodore Mine",31.41125,-111.25319,NA,"United States","Santa Cruz","M","Silver","Lead, Copper","Zinc","Unknown","","S","Past Producer","Gold, Silver","","","","","Granite",""
"219","Commodore Mine",31.41125,-111.25319,NA,"United States","Santa Cruz","M","Gold","Lead, Copper","Zinc","Unknown","","S","Past Producer","Gold, Silver","","","","","Granite",""
"220","Cramer Mine",31.42486,-111.23625,NA,"United States","Santa Cruz","M","Gold","Copper","Iron, Manganese","Unknown","","S","Past Producer","Gold, Iron, Silver","","","Nevada","","Tuff",""
"221","Cramer Mine",31.42486,-111.23625,NA,"United States","Santa Cruz","M","Silver","Copper","Iron, Manganese","Unknown","","S","Past Producer","Gold, Iron, Silver","","","Nevada","","Tuff",""
"222","Double Standard Mine",31.37514,-110.70539,NA,"United States","Santa Cruz","M","Silver","Gold","","Unknown","","S","Past Producer","Chalcopyrite, Galena, Gold, Sphalerite","","","","","Limestone",""
"223","Double Standard Mine",31.37514,-110.70539,NA,"United States","Santa Cruz","M","Lead","Gold","","Unknown","","S","Past Producer","Chalcopyrite, Galena, Gold, Sphalerite","","","","","Limestone",""
"224","Double Standard Mine",31.37514,-110.70539,NA,"United States","Santa Cruz","M","Copper","Gold","","Unknown","","S","Past Producer","Chalcopyrite, Galena, Gold, Sphalerite","","","","","Limestone",""
"225","Double Standard Mine",31.37514,-110.70539,NA,"United States","Santa Cruz","M","Zinc","Gold","","Unknown","","S","Past Producer","Chalcopyrite, Galena, Gold, Sphalerite","","","","","Limestone",""
"226","Durham Copper Claims",31.51931,-110.65317,NA,"United States","Santa Cruz","M","Silver","Gold","","Unknown","","S","Past Producer","Gold, Silver","","","","","Volcanic Rock (Aphanitic)","Volcanic Rock (Aphanitic)"
"227","Durham Copper Claims",31.51931,-110.65317,NA,"United States","Santa Cruz","M","Copper","Gold","","Unknown","","S","Past Producer","Gold, Silver","","","","","Volcanic Rock (Aphanitic)","Volcanic Rock (Aphanitic)"
"228","Arrastra Mine",31.79957,-110.76929,NA,"United States","Pima","M","Gold","Lead, Silver, Copper","","Unknown","Vein","S","Past Producer","Chalcopyrite, Galena, Pyrite","","","","Vein Borders Contact Of Granodiorite With Quartz Latite.","Diorite","Quartz Latite"
"229","Gabitzsch-Owens Tungsten Group",33.35008,-110.98403,NA,"United States","Pinal","M","Tungsten","","","Unknown","Vein","N","Occurrence","Scheelite, Wolframite","Limonite, Muscovite, Pyrite","","","","Quartz Monzonite","Quartz Monzonite"
"230","Owl Head Mine",32.76454,-111.14737,NA,"United States","Pinal","M","Copper","","","Unknown","Unknown","S","Past Producer","Copper","","","","","Schist",""
"231","European Mine Group",31.46542,-110.76374,NA,"United States","Santa Cruz","M","Copper","Gold","Lead, Zinc","Unknown","","S","Past Producer","Chalcopyrite, Gold","Pyrite, Quartz","","Buena Vista Group","","Granite",""
"232","European Mine Group",31.46542,-110.76374,NA,"United States","Santa Cruz","M","Silver","Gold","Lead, Zinc","Unknown","","S","Past Producer","Chalcopyrite, Gold","Pyrite, Quartz","","Buena Vista Group","","Granite",""
"233","Justice Mine",31.8743,-110.64179,NA,"United States","Pima","M","Lead","Copper, Gold, Zinc","","Unknown","Replacement","S","Producer","","","","Red Top, La Plata","","Limestone","Diorite"
"234","Justice Mine",31.8743,-110.64179,NA,"United States","Pima","M","Silver","Copper, Gold, Zinc","","Unknown","Replacement","S","Producer","","","","Red Top, La Plata","","Limestone","Diorite"
"235","Hilton Tungsten Claims",31.88902,-110.6215,NA,"United States","Pima","M","Tungsten","Lead, Silver, Gold, Copper","Molybdenum","Unknown","","S","Past Producer","Chalcocite, Galena, Malachite, Powellite, Scheelite","Epidote, Garnet","","","Marble And Garnetiferous Beds Adjacent To Monzonite-Granodiorite","Limestone","Quartz Monzonite"
"236","New Colorado Mine",31.6893,-111.33847,NA,"United States","Pima","M","Gold","Zinc","Mercury","Unknown","","S","Producer","Cinnabar, Copper, Freibergite","","","","","Andesite",""
"237","New Colorado Mine",31.6893,-111.33847,NA,"United States","Pima","M","Silver","Zinc","Mercury","Unknown","","S","Producer","Cinnabar, Copper, Freibergite","","","","","Andesite",""
"238","New Colorado Mine",31.6893,-111.33847,NA,"United States","Pima","M","Lead","Zinc","Mercury","Unknown","","S","Producer","Cinnabar, Copper, Freibergite","","","","","Andesite",""
"239","New Colorado Mine",31.6893,-111.33847,NA,"United States","Pima","M","Copper","Zinc","Mercury","Unknown","","S","Producer","Cinnabar, Copper, Freibergite","","","","","Andesite",""
"240","Silver Queen Mine",32.0665,-111.93738,NA,"United States","Pima","M","Silver","Gold, Lead","","Unknown","Vein","S","Producer","Chalcopyrite, Galena, Pyrite","","","","Ruby Silver Occurred In The Oxidized Zone.","Andesite",""
"241","Silver Queen Mine",32.0665,-111.93738,NA,"United States","Pima","M","Copper","Gold, Lead","","Unknown","Vein","S","Producer","Chalcopyrite, Galena, Pyrite","","","","Ruby Silver Occurred In The Oxidized Zone.","Andesite",""
"242","Florida Mine",31.61263,-110.86374,NA,"United States","Santa Cruz","M","Copper","Gold","","Unknown","Vein","S","Past Producer","Chalcopyrite, Gold","Pyrite","","Part of the Alto Group?","","Arkose,Rhyodacite",""
"243","Florida Mine",31.61263,-110.86374,NA,"United States","Santa Cruz","M","Lead","Gold","","Unknown","Vein","S","Past Producer","Chalcopyrite, Gold","Pyrite","","Part of the Alto Group?","","Arkose,Rhyodacite",""
"244","Florida Mine",31.61263,-110.86374,NA,"United States","Santa Cruz","M","Silver","Gold","","Unknown","Vein","S","Past Producer","Chalcopyrite, Gold","Pyrite","","Part of the Alto Group?","","Arkose,Rhyodacite",""
"245","Frisco Fair Mine Group",31.52153,-110.63734,NA,"United States","Santa Cruz","M","Lead","Copper","","Unknown","","S","Past Producer","Copper","","","Hummer, Apex, Margaret","","Volcanic Rock (Aphanitic),Granite","Volcanic Rock (Aphanitic),Granite"
"246","Frisco Fair Mine Group",31.52153,-110.63734,NA,"United States","Santa Cruz","M","Silver","Copper","","Unknown","","S","Past Producer","Copper","","","Hummer, Apex, Margaret","","Volcanic Rock (Aphanitic),Granite","Volcanic Rock (Aphanitic),Granite"
"247","Hughes and Bales Prospects",33.23342,-111.00069,NA,"United States","Pinal","M","Zinc","","","Unknown","Unknown","S","Past Producer","","","","","","",""
"248","Hughes and Bales Prospects",33.23342,-111.00069,NA,"United States","Pinal","M","Lead","","","Unknown","Unknown","S","Past Producer","","","","","","",""
"249","Hughes and Bales Prospects",33.23342,-111.00069,NA,"United States","Pinal","M","Copper","","","Unknown","Unknown","S","Past Producer","","","","","","",""
"250","Apex Mine",33.1887,-111.01153,NA,"United States","Pinal","M","Copper","","","Unknown","","N","Prospect","","","","Bunker Hill","","Quartzite",""
"251","Honey Bee No. 4 Claim",33.08315,-111.0243,NA,"United States","Pinal","M","Copper","","","Unknown","","N","Occurrence","","","","","","Mafic Intrusive Rock,Plutonic Rock,Granite","Mafic Intrusive Rock,Plutonic Rock,Granite"
"252","Honey Bee No. 4 Claim",33.08315,-111.0243,NA,"United States","Pinal","M","Uranium","","","Unknown","","N","Occurrence","","","","","","Mafic Intrusive Rock,Plutonic Rock,Granite","Mafic Intrusive Rock,Plutonic Rock,Granite"
"253","Silver Giant Mine",32.13928,-111.84904,NA,"United States","Pima","M","Silver","Copper","","Unknown","","S","Producer","","","","","","Quartz Monzonite","Quartz Monzonite"
"254","Old Timer Mine",32.06178,-111.93182,NA,"United States","Pima","M","Silver","Copper, Gold","","Unknown","","S","Producer","Chalcocite, Pyrite, Silver","","","","Fissure Zone","Andesite",""
"255","Gold Hill Mine",31.39875,-110.92762,NA,"United States","Santa Cruz","M","Lead","","Copper","Unknown","","S","Past Producer","","","","","Associated With Dark Pyritized Dikes","Quartz Monzonite",""
"256","Gold Hill Mine",31.39875,-110.92762,NA,"United States","Santa Cruz","M","Gold","","Copper","Unknown","","S","Past Producer","","","","","Associated With Dark Pyritized Dikes","Quartz Monzonite",""
"257","Gold Hill Mine",31.39875,-110.92762,NA,"United States","Santa Cruz","M","Silver","","Copper","Unknown","","S","Past Producer","","","","","Associated With Dark Pyritized Dikes","Quartz Monzonite",""
"258","Good Luck Mine",31.69124,-110.92679,NA,"United States","Santa Cruz","M","Silver","","Iron","Unknown","","S","Past Producer","Gold, Pyrite, Silver","","","","Mineralization Probably Controlled By Fractures","Quartz Monzonite",""
"259","Good Luck Mine",31.69124,-110.92679,NA,"United States","Santa Cruz","M","Gold","","Iron","Unknown","","S","Past Producer","Gold, Pyrite, Silver","","","","Mineralization Probably Controlled By Fractures","Quartz Monzonite",""
"260","Good Luck Mine",31.69124,-110.92679,NA,"United States","Santa Cruz","M","Lead","","Iron","Unknown","","S","Past Producer","Gold, Pyrite, Silver","","","","Mineralization Probably Controlled By Fractures","Quartz Monzonite",""
"261","Samsel Mine",33.27842,-110.89152,NA,"United States","Gila","M","Tungsten","Gold, Silver, Copper","Lead, Molybdenum","Unknown","","S","Past Producer","Chalcopyrite, Galena, Gold, Molybdenite, Pyrite, Scheelite, Silver, Wolframite","","","","","Schist","Diorite"
"262","Madera Prospect",33.33287,-110.89375,NA,"United States","Gila","M","Copper","Molybdenum","","Unknown","","N","Occurrence","Chalcocite, Chalcopyrite, Ferrimolybdite, Molybdenite, Pyrite","","","Ellis Vein","","Schist","Diorite"
"263","Ferrell Mine",33.17065,-110.95569,NA,"United States","Pinal","M","Gold","","","Unknown","","N","Occurrence","Gold","","","","","",""
"264","Ferrell Mine",33.17065,-110.95569,NA,"United States","Pinal","M","Silver","","","Unknown","","N","Occurrence","Gold","","","","","",""
"265","Columbia Mine",33.14342,-110.86347,NA,"United States","Gila","M","Copper","Gold, Silver","","Unknown","Vein","S","Past Producer","Chalcopyrite, Cuprite, Pyrite","","Underground","","","Limestone","Diorite"
"266","Ninety-One Mine",33.13842,-110.90847,NA,"United States","Pinal","M","Molybdenum","","Copper, Lead, Vanadium","Unknown","Replacement","S","Past Producer","Wulfenite","","Underground","","Along Bedding Planes In Limestone, As Inclusions In Diabase","Quartzite",""
"267","Barbarossa Placer",33.12676,-110.86513,NA,"United States","Gila","M","Gold","","","Unknown","Placer","S","Producer","Gold","","","","","",""
"268","Silver King Mine",32.96842,-110.87125,NA,"United States","Pinal","M","Copper","","","Unknown","","N","Occurrence","Copper","","","","","Granite",""
"269","Mary and James Claims",32.74649,-110.90458,NA,"United States","Pinal","M","Copper","","","Unknown","Unknown","N","Occurrence","","","","","","",""
"270","Mary and James Claims",32.74649,-110.90458,NA,"United States","Pinal","M","Gold","","","Unknown","Unknown","N","Occurrence","","","","","","",""
"271","Canada Del Oro Mine",32.54789,-110.78762,NA,"United States","Pinal","M","Gold","","","Unknown","Placer","S","Past Producer","","","Surface/Underground","Old Hat Placers","Source Of Au:  Quartz Veins In The Vicinity Of Copeland, Kerr, And Metas","Gravel",""
"272","Sun Lode Claim",31.72513,-110.88124,NA,"United States","Pima, Santa Cruz","M","Molybdenum","","","Unknown","Vein","U","Occurrence","Molybdenite","Quartz","","","In Quartz Along Fault & Veins In Diorite","Diorite",""
"273","Sun Lode Claim",31.72513,-110.88124,NA,"United States","Pima, Santa Cruz","M","Copper","","","Unknown","Vein","U","Occurrence","Molybdenite","Quartz","","","In Quartz Along Fault & Veins In Diorite","Diorite",""
"274","Jesuit Mine",31.60985,-110.86901,NA,"United States","Santa Cruz","M","Silver","Gold","","Unknown","","S","Past Producer","Chalcopyrite, Galena","Pyrite","","","","Arkose,Rhyodacite",""
"275","Jesuit Mine",31.60985,-110.86901,NA,"United States","Santa Cruz","M","Lead","Gold","","Unknown","","S","Past Producer","Chalcopyrite, Galena","Pyrite","","","","Arkose,Rhyodacite",""
"276","Jesuit Mine",31.60985,-110.86901,NA,"United States","Santa Cruz","M","Copper","Gold","","Unknown","","S","Past Producer","Chalcopyrite, Galena","Pyrite","","","","Arkose,Rhyodacite",""
"277","Lucky Ledge Mine",31.71346,-110.86096,NA,"United States","Santa Cruz","M","Gold","","","Unknown","","N","Occurrence","Chalcopyrite, Malachite, Pyrite","Barite, Epidote, Garnet, Limonite, Quartz","","","N-S Trending Veins Associated With Lamprophyric Porphyry Dike In Micaceous Quartz Schist; Coatings On Joint Planes Of Dike And Country Rock","Schist,Plutonic Rock",""
"278","Lucky Ledge Mine",31.71346,-110.86096,NA,"United States","Santa Cruz","M","Copper","","","Unknown","","N","Occurrence","Chalcopyrite, Malachite, Pyrite","Barite, Epidote, Garnet, Limonite, Quartz","","","N-S Trending Veins Associated With Lamprophyric Porphyry Dike In Micaceous Quartz Schist; Coatings On Joint Planes Of Dike And Country Rock","Schist,Plutonic Rock",""
"279","Lucky Ledge Mine",31.71346,-110.86096,NA,"United States","Santa Cruz","M","Silver","","","Unknown","","N","Occurrence","Chalcopyrite, Malachite, Pyrite","Barite, Epidote, Garnet, Limonite, Quartz","","","N-S Trending Veins Associated With Lamprophyric Porphyry Dike In Micaceous Quartz Schist; Coatings On Joint Planes Of Dike And Country Rock","Schist,Plutonic Rock",""
"280","Lee Mine",31.60541,-110.84318,NA,"United States","Santa Cruz","M","Lead","Gold","","Unknown","","S","Past Producer","Chalcopyrite, Gold","Pyrite","","Lee Shaft","","Diorite,Arkose","Diorite"
"281","Lee Mine",31.60541,-110.84318,NA,"United States","Santa Cruz","M","Silver","Gold","","Unknown","","S","Past Producer","Chalcopyrite, Gold","Pyrite","","Lee Shaft","","Diorite,Arkose","Diorite"
"282","Lee Mine",31.60541,-110.84318,NA,"United States","Santa Cruz","M","Copper","Gold","","Unknown","","S","Past Producer","Chalcopyrite, Gold","Pyrite","","Lee Shaft","","Diorite,Arkose","Diorite"
"283","Manzanita Mine",31.37514,-110.71678,NA,"United States","Santa Cruz","M","Zinc","","Gold","Unknown","","S","Past Producer","Chalcopyrite, Galena, Gold, Sphalerite","Garnet, Pyrite","","","","Diorite,Limestone","Diorite"
"284","Manzanita Mine",31.37514,-110.71678,NA,"United States","Santa Cruz","M","Lead","","Gold","Unknown","","S","Past Producer","Chalcopyrite, Galena, Gold, Sphalerite","Garnet, Pyrite","","","","Diorite,Limestone","Diorite"
"285","Manzanita Mine",31.37514,-110.71678,NA,"United States","Santa Cruz","M","Copper","","Gold","Unknown","","S","Past Producer","Chalcopyrite, Galena, Gold, Sphalerite","Garnet, Pyrite","","","","Diorite,Limestone","Diorite"
"286","Manzanita Mine",31.37514,-110.71678,NA,"United States","Santa Cruz","M","Silver","","Gold","Unknown","","S","Past Producer","Chalcopyrite, Galena, Gold, Sphalerite","Garnet, Pyrite","","","","Diorite,Limestone","Diorite"
"287","Good Luck Mine",31.46514,-110.70595,NA,"United States","Santa Cruz","M","Gold","","","Unknown","","S","Past Producer","Gold, Silver","Pyrite","","Santa Rita","","Limestone",""
"288","Good Luck Mine",31.46514,-110.70595,NA,"United States","Santa Cruz","M","Silver","","","Unknown","","S","Past Producer","Gold, Silver","Pyrite","","Santa Rita","","Limestone",""
"289","Good Luck Mine",31.46514,-110.70595,NA,"United States","Santa Cruz","M","Lead","","","Unknown","","S","Past Producer","Gold, Silver","Pyrite","","Santa Rita","","Limestone",""
"290","New Hope Mine Group",31.47903,-110.78485,NA,"United States","Santa Cruz","M","Copper","Zinc, Lead, Gold","","Unknown","","S","Past Producer","Chalcopyrite, Galena, Gold, Sphalerite","Pyrite","","Dona Maria Elena","","Clastic Sedimentary Rock",""
"291","New Hope Mine Group",31.47903,-110.78485,NA,"United States","Santa Cruz","M","Silver","Zinc, Lead, Gold","","Unknown","","S","Past Producer","Chalcopyrite, Galena, Gold, Sphalerite","Pyrite","","Dona Maria Elena","","Clastic Sedimentary Rock",""
"292","Roy Mine",31.41792,-110.73761,NA,"United States","Santa Cruz","M","Copper","Gold","Lead","Unknown","Vein","S","Past Producer","","","","","","Diorite",""
"293","Roy Mine",31.41792,-110.73761,NA,"United States","Santa Cruz","M","Silver","Gold","Lead","Unknown","Vein","S","Past Producer","","","","","","Diorite",""
"294","San Antonio Mine",31.37486,-110.69261,NA,"United States","Santa Cruz","M","Zinc","","Gold","Unknown","","S","Past Producer","Chalcopyrite, Galena, Gold, Sphalerite","Pyrite","","Texas Mine? Very Close Location","","Limestone",""
"295","San Antonio Mine",31.37486,-110.69261,NA,"United States","Santa Cruz","M","Lead","","Gold","Unknown","","S","Past Producer","Chalcopyrite, Galena, Gold, Sphalerite","Pyrite","","Texas Mine? Very Close Location","","Limestone",""
"296","San Antonio Mine",31.37486,-110.69261,NA,"United States","Santa Cruz","M","Copper","","Gold","Unknown","","S","Past Producer","Chalcopyrite, Galena, Gold, Sphalerite","Pyrite","","Texas Mine? Very Close Location","","Limestone",""
"297","San Antonio Mine",31.37486,-110.69261,NA,"United States","Santa Cruz","M","Silver","","Gold","Unknown","","S","Past Producer","Chalcopyrite, Galena, Gold, Sphalerite","Pyrite","","Texas Mine? Very Close Location","","Limestone",""
"298","Sweetwater Mine",31.71791,-110.79068,NA,"United States","Santa Cruz","M","Copper","","","Unknown","","S","Past Producer","","","","","","Volcanic Rock (Aphanitic)",""
"299","Sweetwater Mine",31.71791,-110.79068,NA,"United States","Santa Cruz","M","Silver","","","Unknown","","S","Past Producer","","","","","","Volcanic Rock (Aphanitic)",""
"300","Two Brothers Mine",31.39708,-110.92707,NA,"United States","Santa Cruz","M","Gold","Copper","","Unknown","","S","Past Producer","","","","","","Quartz Monzonite,Diorite",""
"301","Two Brothers Mine",31.39708,-110.92707,NA,"United States","Santa Cruz","M","Silver","Copper","","Unknown","","S","Past Producer","","","","","","Quartz Monzonite,Diorite",""
"302","Two Brothers Mine",31.39708,-110.92707,NA,"United States","Santa Cruz","M","Lead","Copper","","Unknown","","S","Past Producer","","","","","","Quartz Monzonite,Diorite",""
"303","Tyndall Placers  Mine",31.5593,-110.88151,NA,"United States","Santa Cruz","M","Gold","","","Unknown","Placer","S","Past Producer","Gold","","","","","",""
"304","Pool's Mine",33.02953,-110.71152,NA,"United States","Pinal","M","Gold","","","Unknown","","N","Occurrence","Chalcopyrite, Malachite","Calcite, Fluorite, Hematite, Limonite, Pyrite","Surface/Underground","","","Limestone,Andesite","Andesite"
"305","Pool's Mine",33.02953,-110.71152,NA,"United States","Pinal","M","Copper","","","Unknown","","N","Occurrence","Chalcopyrite, Malachite","Calcite, Fluorite, Hematite, Limonite, Pyrite","Surface/Underground","","","Limestone,Andesite","Andesite"
"306","Farmer Mine",31.39542,-110.92735,NA,"United States","Santa Cruz","M","Gold","","","Unknown","","S","Past Producer","","Quartz","","","Lesing Veins In Irregular Shear Zone; Irregular Pockets And Impregnations Of Ore","Quartz Monzonite,Metasedimentary Rock","Plutonic Rock"
"307","Farmer Mine",31.39542,-110.92735,NA,"United States","Santa Cruz","M","Lead","","","Unknown","","S","Past Producer","","Quartz","","","Lesing Veins In Irregular Shear Zone; Irregular Pockets And Impregnations Of Ore","Quartz Monzonite,Metasedimentary Rock","Plutonic Rock"
"308","Farmer Mine",31.39542,-110.92735,NA,"United States","Santa Cruz","M","Copper","","","Unknown","","S","Past Producer","","Quartz","","","Lesing Veins In Irregular Shear Zone; Irregular Pockets And Impregnations Of Ore","Quartz Monzonite,Metasedimentary Rock","Plutonic Rock"
"309","J. Reed Claims",31.39292,-110.87235,NA,"United States","Santa Cruz","M","Manganese","","","Unknown","","N","Occurrence","","","","","","",""
"310","Apache Manganese Mine",33.79368,-110.69569,NA,"United States","Gila","M","Manganese","","Silver, Cobalt","Unknown","","S","Past Producer","Erythrite, Psilomelane, Pyrolusite, Wad","","Surface/Underground","","Deposits Occur In Steeply Dipping Fracture Zones That Range In Strike From Nw To Ne.","Gravel","Andesite"
"311","Apache Manganese Mine",33.79368,-110.69569,NA,"United States","Gila","M","Copper","","Silver, Cobalt","Unknown","","S","Past Producer","Erythrite, Psilomelane, Pyrolusite, Wad","","Surface/Underground","","Deposits Occur In Steeply Dipping Fracture Zones That Range In Strike From Nw To Ne.","Gravel","Andesite"
"312","Copper King Or Wylomene",33.18953,-110.61651,NA,"United States","Gila","M","Copper","Iron","","Unknown","Vein","N","Occurrence","Chalcocite, Malachite","","Unknown","","","","Diabase"
"313","Badger Mine",31.99262,-111.82099,NA,"United States","Pima","M","Gold","","","Unknown","","S","Producer","","","Underground","","Along Fracture Zone In Granitics","Granite",""
"314","Badger Mine",31.99262,-111.82099,NA,"United States","Pima","M","Silver","","","Unknown","","S","Producer","","","Underground","","Along Fracture Zone In Granitics","Granite",""
"315","Iron Claims Mine",33.34509,-110.51485,NA,"United States","Gila","M","Iron","","","Unknown","Replacement","N","Occurrence","","","Unknown","","","Quartzite","Diabase"
"316","Peacock Claims",33.31676,-110.54707,NA,"United States","Gila","M","Copper","","","Unknown","Vein","N","Occurrence","Malachite","","Surface/Underground","","","Granite","Diorite"
"317","Westlake Prospect",33.30092,-110.85902,NA,"United States","Gila","M","Tungsten","Silver, Gold","Copper, Lead","Unknown","","S","Past Producer","Chalcocite, Chalcopyrite, Galena, Gold, Hematite, Pyrite, Scheelite, Silver, Wolframite","","","Del Ray Silver Continental Tungsten","Wolframite Occurs Mostly In The Big Boulder And Centipede Veins In The Sw Part Of The Group.","Schist","Diorite"
"318","Lucky Boy Mine",33.21926,-110.84402,NA,"United States","Gila","M","Uranium","","","Unknown","Vein","S","Past Producer","","","","","","Quartzite","Diabase"
"319","Accord Mine",33.79757,-110.7143,NA,"United States","Gila","M","Manganese","","","Unknown","","N","Occurrence","Psilomelane, Wad","","Surface/Underground","","Deposits Occur Along Two Northerly Trending Veins About 300 Ft. Apart.","Gravel","Andesite"
"320","Sky Prospects",33.20037,-110.78986,NA,"United States","Gila","M","Uranium","","","Unknown","Vein","N","Occurrence","Limonite, Malachite, Pyrite","","","","","Quartzite","Diabase"
"321","C & B Vanadium Mine",33.13287,-110.83319,NA,"United States","Gila","M","Vanadium","Molybdenum","Zinc, Lead, Silver, Copper, Gold, Bismuth","Unknown","Vein","S","Past Producer","Anglesite, Descloizite, Galena, Mimetite, Vanadinite, Wulfenite","Calcite, Quartz","Surface/Underground","C & B Group Mine, Vanadium Mine","Contact Of Limestone And Diabase","Diabase,Limestone",""
"322","Premier Group",33.08092,-110.77208,NA,"United States","Gila","M","Gold","","Vanadium, Molybdenum, Lead, Copper, Tungsten, Zinc","Unknown","","S","Past Producer","Anglesite, Copper, Galena, Gold, Vanadinite, Wulfenite","Goethite, Hematite, Jarosite, Jasper, Quartz","Surface/Underground","Santa Montica Camp, Santa Monica Camp","Ore Occurs On S Side Of Nnw Trending Fault; Cu As Veins & Replaceme Nt Bodies Adjacent Gold","Limestone","Rhyodacite"
"323","Mchur Prospect",33.06481,-110.81569,NA,"United States","Gila","M","Vanadium","Molybdenum, Iron","","Unknown","Vein","N","Occurrence","Siderite, Vanadinite, Wulfenite","","","Probably Part of 79 Mine","Irregular Masses Of Gossan-Like Material","Limestone","Quartz Latite"
"324","Chilito Mine",33.0662,-110.79791,NA,"United States","Gila","M","Copper","Gold, Silver, Molybdenum","","Surface-Underground","Porphyry Cu, skarn-related","S","Past Producer","Chalcocite, Chalcopyrite, Molybdenite, Pyrite, Quartzite","Anhydrite","Surface/Underground","Chillito, Velasco Pit ?, Schneider Group","Apache Group Sediments Adjacent To Stock","Diabase,Quartzite,Granodiorite","Diorite,Rhyodacite"
"325","Chilito Mine",33.0662,-110.79791,NA,"United States","Gila","M","Silica","Gold, Silver, Molybdenum","","Surface-Underground","Porphyry Cu, skarn-related","S","Past Producer","Chalcocite, Chalcopyrite, Molybdenite, Pyrite, Quartzite","Anhydrite","Surface/Underground","Chillito, Velasco Pit ?, Schneider Group","Apache Group Sediments Adjacent To Stock","Diabase,Quartzite,Granodiorite","Diorite,Rhyodacite"
"326","Gold-Copper Mines Co.",33.07315,-110.78458,NA,"United States","Gila","M","Gold","","","Unknown","Vein","S","Past Producer","Gold","","","","","Limestone","Andesite"
"327","Gold-Copper Mines Co.",33.07315,-110.78458,NA,"United States","Gila","M","Copper","","","Unknown","Vein","S","Past Producer","Gold","","","","","Limestone","Andesite"
"328","Rieder and Bailey Prospects",33.0137,-110.71986,NA,"United States","Pinal","M","Gold","","","Unknown","","N","Occurrence","Chrysocolla","Limonite, Magnetite, Specularite","","","","Quartz Monzonite,Andesite","Diorite,Andesite"
"329","Rieder and Bailey Prospects",33.0137,-110.71986,NA,"United States","Pinal","M","Copper","","","Unknown","","N","Occurrence","Chrysocolla","Limonite, Magnetite, Specularite","","","","Quartz Monzonite,Andesite","Diorite,Andesite"
"330","Curtin Or Humphrey Mine",33.06148,-110.77708,NA,"United States","Gila","M","Lead","","Iron","Unknown","Vein","S","Past Producer","Anglesite, Hemimorphite, Smithsonite","Garnet","Underground","","The Main Porphyry Dikes Strike Approximately Parrallel To The Limestone, But Branches Of Them Trend Northeast, And South.  In General The Dikes Dip Steeply Northward, But In Places They Form Sills More Or Less Concordant With The Limestone Beds.","Limestone","Plutonic Rock"
"331","Curtin Or Humphrey Mine",33.06148,-110.77708,NA,"United States","Gila","M","Zinc","","Iron","Unknown","Vein","S","Past Producer","Anglesite, Hemimorphite, Smithsonite","Garnet","Underground","","The Main Porphyry Dikes Strike Approximately Parrallel To The Limestone, But Branches Of Them Trend Northeast, And South.  In General The Dikes Dip Steeply Northward, But In Places They Form Sills More Or Less Concordant With The Limestone Beds.","Limestone","Plutonic Rock"
"332","Copper Mountain Mine",31.88624,-110.63707,NA,"United States","Pima","M","Gold","Copper, Lead","","Unknown","Contact Metamorphic","S","Past Producer","","","","","Along Contact Of Limestone, Quartzite With Quartz Monzonite","Quartzite,Limestone","Quartz Monzonite"
"333","Copper Mountain Mine",31.88624,-110.63707,NA,"United States","Pima","M","Silver","Copper, Lead","","Unknown","Contact Metamorphic","S","Past Producer","","","","","Along Contact Of Limestone, Quartzite With Quartz Monzonite","Quartzite,Limestone","Quartz Monzonite"
"334","Catalina Group",32.48039,-110.75596,NA,"United States","Pima","M","Copper","","","Unknown","Unknown","N","Prospect","","","","","","",""
"335","Catalina Group",32.48039,-110.75596,NA,"United States","Pima","M","Silver","","","Unknown","Unknown","N","Prospect","","","","","","",""
"336","Catalina Group",32.48039,-110.75596,NA,"United States","Pima","M","Gold","","","Unknown","Unknown","N","Prospect","","","","","","",""
"337","Catalina Group",32.48039,-110.75596,NA,"United States","Pima","M","Tungsten","","","Unknown","Unknown","N","Prospect","","","","","","",""
"338","Lucido Claim Group",31.98568,-111.81765,NA,"United States","Pima","M","Gold","Copper","","Unknown","","S","Producer","Gold, Silver","","","Golden Star","","Diorite",""
"339","Lucido Claim Group",31.98568,-111.81765,NA,"United States","Pima","M","Silver","Copper","","Unknown","","S","Producer","Gold, Silver","","","Golden Star","","Diorite",""
"340","Desert Lode Mine",32.04067,-111.95599,NA,"United States","Pima","M","Gold","","","Unknown","","S","Producer","","","","","","Andesite","Granite"
"341","Desert Lode Mine",32.04067,-111.95599,NA,"United States","Pima","M","Silver","","","Unknown","","S","Producer","","","","","","Andesite","Granite"
"342","Powers Prospect",31.3932,-110.7904,NA,"United States","Santa Cruz","M","Iron","","","Unknown","Unknown","S","Past Producer","Specularite","","","","","Rhyolite",""
"343","Newman Mine",31.8643,-110.77651,NA,"United States","Pima","M","Copper","Silver, Gold","","Unknown","","S","Producer","Copper","","","Newman North, South Veins","","Limestone","Quartz Latite"
"344","Fort Apache Indian Reservation",33.83757,-110.68736,NA,"United States","Gila","M","Uranium","Molybdenum, Copper","","Unknown","","N","Occurrence","Chalcopyrite, Marcasite, Molybdenite, Pyrite, Pyrrhotite","","","","Some Of The Richest Uranium Deposits Are In Metamorphosed Parts Of The Upper Member Where It Is Intruded By Pinkish Potassium-Feldspar-Rich Aplitic Dikes.","Quartzite","Diabase"
"345","Mellor Prospect",33.05759,-110.71958,NA,"United States","Pinal, Gila","M","Copper","","","Unknown","","N","Occurrence","","","","","","Andesite","Diorite"
"346","Saddle Mountain Group",33.03453,-110.68625,NA,"United States","Pinal","M","Gold","","Zinc, Copper, Molybdenum, Lead","Unknown","","S","Past Producer","Anglesite, Argentite, Bornite, Chalcopyrite, Chrysocolla, Covellite, Galena, Gold, Malachite, Pyrargyrite, Pyrite, Silver, Sphalerite","Barite, Calcite, Garnet, Gypsum, Magnetite, Quartz, Specularite","Underground","","In Brecciated Zones Of E-W Shears And Ne Tension Fractures Near Dik E Swarm","Andesite","Diorite"
"347","Saddle Mountain Group",33.03453,-110.68625,NA,"United States","Pinal","M","Silver","","Zinc, Copper, Molybdenum, Lead","Unknown","","S","Past Producer","Anglesite, Argentite, Bornite, Chalcopyrite, Chrysocolla, Covellite, Galena, Gold, Malachite, Pyrargyrite, Pyrite, Silver, Sphalerite","Barite, Calcite, Garnet, Gypsum, Magnetite, Quartz, Specularite","Underground","","In Brecciated Zones Of E-W Shears And Ne Tension Fractures Near Dik E Swarm","Andesite","Diorite"
"348","Swede Mine",33.36119,-110.99237,NA,"United States","Pinal","M","Tungsten","","Molybdenum, Copper, Lead, Zinc","Unknown","","S","Past Producer","Chalcopyrite, Galena, Molybdenite, Pyrite, Scheelite, Sphalerite, Wolframite","Hematite, Jarosite, Limonite, Quartz","Surface/Underground","Cole Tungsten Prospect, Old Swede Mine, Swede Mine and Clark Prospect","Shear Zone Intersection With Granite Porphyry Dikes","Schist","Granite"
"349","Bose Mine",32.70843,-110.71429,NA,"United States","Pinal","M","Lead","","","Unknown","","N","Occurrence","","","","Burson Mine","","",""
"350","Bose Mine",32.70843,-110.71429,NA,"United States","Pinal","M","Manganese","","","Unknown","","N","Occurrence","","","","Burson Mine","","",""
"351","Comobabi and Crusader Mines",32.01373,-111.88849,NA,"United States","Pima","M","Copper","Gold, Lead","","Unknown","","S","Producer","Lead","","","","","Andesite,Granite","Granite"
"352","Comobabi and Crusader Mines",32.01373,-111.88849,NA,"United States","Pima","M","Silver","Gold, Lead","","Unknown","","S","Producer","Lead","","","","","Andesite,Granite","Granite"
"353","Ventana Mine Group",31.78095,-111.66292,NA,"United States","Pima","M","Copper","Gold, Silver","Manganese, Zinc, Lead","Unknown","","S","Producer","","Quartz","","","","Metasedimentary Rock,Volcanic Rock (Aphanitic)","Granite"
"354","Chester Mud No. 1 Mine",36.7028,-109.38901,NA,"United States","Apache","M","Vanadium","","","Unknown","","S","Past Producer","Carnotite","","","","Ore Is Found In Clusters, Usually Associated With Carbonaceous Detritus","Claystone,Siltstone,Sandstone",""
"355","Chester Mud No. 1 Mine",36.7028,-109.38901,NA,"United States","Apache","M","Uranium","","","Unknown","","S","Past Producer","Carnotite","","","","Ore Is Found In Clusters, Usually Associated With Carbonaceous Detritus","Claystone,Siltstone,Sandstone",""
"356","Black Hills Group",32.54344,-110.54374,NA,"United States","Pinal","M","Vanadium","","","Unknown","","N","Occurrence","","","","","","",""
"357","Black Hills Group",32.54344,-110.54374,NA,"United States","Pinal","M","Lead","","","Unknown","","N","Occurrence","","","","","","",""
"358","Black Hills Group",32.54344,-110.54374,NA,"United States","Pinal","M","Tungsten","","","Unknown","","N","Occurrence","","","","","","",""
"359","Black Hills Group",32.54344,-110.54374,NA,"United States","Pinal","M","Silver","","","Unknown","","N","Occurrence","","","","","","",""
"360","Half Moon #3 Prospect",32.47872,-110.51124,NA,"United States","Pima","M","Uranium","","","Unknown","Unconsolidated Sediments","N","Occurrence","","","","","Uranium Is Within 8 Foot Bed Of Opalite, Overlain By Loosely Consolidated Sediments","Clay, Mud,Gravel","Volcanic Rock (Aphanitic)"
"361","Sunnyside Mine",36.74446,-109.27568,NA,"United States","Apache","M","Uranium","","","Unknown","","S","Past Producer","Carnotite","","","","Ore Is Found In Clusters, Usually Associated With Carbonaceous Detritus","Claystone,Siltstone,Sandstone",""
"362","Sunnyside Mine",36.74446,-109.27568,NA,"United States","Apache","M","Vanadium","","","Unknown","","S","Past Producer","Carnotite","","","","Ore Is Found In Clusters, Usually Associated With Carbonaceous Detritus","Claystone,Siltstone,Sandstone",""
"363","Segi-Ho-Cha Mesa Mine",36.70669,-109.28985,NA,"United States","Apache","M","Uranium","","","Unknown","","S","Past Producer","Carnotite","","","Mildred No. 1 Mine","Ore Is Found In Clusters, Usually Associated With Carbonaceous Detritus","Claystone,Siltstone,Sandstone",""
"364","Segi-Ho-Cha Mesa Mine",36.70669,-109.28985,NA,"United States","Apache","M","Vanadium","","","Unknown","","S","Past Producer","Carnotite","","","Mildred No. 1 Mine","Ore Is Found In Clusters, Usually Associated With Carbonaceous Detritus","Claystone,Siltstone,Sandstone",""
"365","Golondrina Prospect",32.4815,-109.74622,NA,"United States","Graham","M","Uranium","Copper","Lead","Unknown","","N","Occurrence","Chalcocite, Chalcopyrite, Malachite, Pyromorphite","","Surface/Underground","","Mineralization Is Localized By A 2 Foot Agglomerate Layer, Between Volcanic Flows.","Volcanic Breccia (Agglomerate)","Volcanic Rock (Aphanitic)"
"366","Clani Mine",36.66085,-109.33346,NA,"United States","Apache","M","Uranium","","","Unknown","","S","Past Producer","Carnotite","","","Tree Mesa Mine","Ore Is Found In Clusters, Usually Associated With Carbonaceous Detritus","Claystone,Siltstone,Sandstone",""
"367","Clani Mine",36.66085,-109.33346,NA,"United States","Apache","M","Vanadium","","","Unknown","","S","Past Producer","Carnotite","","","Tree Mesa Mine","Ore Is Found In Clusters, Usually Associated With Carbonaceous Detritus","Claystone,Siltstone,Sandstone",""
"368","Sells Mine",36.64808,-109.2779,NA,"United States","Apache","M","Uranium","","","Unknown","","M","Past Producer","Carnotite, Tyuyamunite","","","Cove Mesa Mines","Ore Is Found In Clusters, Usually Associated With Carbonaceous Detritus","Claystone,Siltstone,Sandstone",""
"369","Sells Mine",36.64808,-109.2779,NA,"United States","Apache","M","Vanadium","","","Unknown","","M","Past Producer","Carnotite, Tyuyamunite","","","Cove Mesa Mines","Ore Is Found In Clusters, Usually Associated With Carbonaceous Detritus","Claystone,Siltstone,Sandstone",""
"370","Tony Tuc Mine",36.80363,-109.0815,NA,"United States","Apache","M","Uranium","","","Unknown","","S","Past Producer","Tyuyamunite","","","","Ore Is Found In Clusters, Usually Associated With Carbonaceous Detritus","Claystone,Siltstone,Sandstone",""
"371","Tony Tuc Mine",36.80363,-109.0815,NA,"United States","Apache","M","Vanadium","","","Unknown","","S","Past Producer","Tyuyamunite","","","","Ore Is Found In Clusters, Usually Associated With Carbonaceous Detritus","Claystone,Siltstone,Sandstone",""
"372","Upper Red Canyon Mine",36.80169,-109.0715,NA,"United States","Apache","M","Uranium","","","Unknown","","S","Past Producer","Tyuyamunite","","","","Ore Is Found In Clusters, Usually Associated With Carbonaceous Detritus","Claystone,Siltstone,Sandstone",""
"373","Upper Red Canyon Mine",36.80169,-109.0715,NA,"United States","Apache","M","Vanadium","","","Unknown","","S","Past Producer","Tyuyamunite","","","","Ore Is Found In Clusters, Usually Associated With Carbonaceous Detritus","Claystone,Siltstone,Sandstone",""
"374","Sanchez Copper Deposit",32.88149,-109.53454,NA,"United States","Graham","M","Copper","Gold, Silver, Molybdenum","","Surface-Underground","Porphyry Cu","S","Past Producer","Atacamite, Bornite, Chalcanthite, Chalcocite, Chalcopyrite, Chrysocolla, Copper, Cuprite, Delafossite, Gold, Molybdenite, Tenorite, Malachite, Brochantite","Biotite, Calcite, Chlorite, Epidote, Goethite, Hematite, Jarosite, Magnetite, Plagioclase, Pyrite, Quartz, Sericite","Surface","Safford Inspiration, Carpenter, Safford Deposit, Esperanza, Inspiration Sanchez Project, Bellmon, Bob Carresco, Arichise Copper Co., United Nuclear, Nancy Group, McBride, Azco","","Volcanic Breccia (Agglomerate),Andesite","Monzonite"
"375","Junction and Shamrock Claims",32.47789,-109.64676,NA,"United States","Graham","M","Manganese","","","Unknown","","N","Occurrence","Psilomelane","","Surface/Underground","Graham","","Granite",""
"376","Rattlesnake No. 8 Mine",36.87945,-109.2654,NA,"United States","Apache","M","Uranium","","","Unknown","","S","Past Producer","Tyuyamunite","","","Plot No. 12 Mine","Ore Is Found In Clusters, Usually Associated With Carbonaceous Detritus","Claystone,Siltstone,Sandstone",""
"377","Rattlesnake No. 8 Mine",36.87945,-109.2654,NA,"United States","Apache","M","Vanadium","","","Unknown","","S","Past Producer","Tyuyamunite","","","Plot No. 12 Mine","Ore Is Found In Clusters, Usually Associated With Carbonaceous Detritus","Claystone,Siltstone,Sandstone",""
"378","Humbug Mines",34.04673,-112.30685,NA,"United States","Yavapai","M","Gold","","Lead, Zinc, Arsenic","Unknown","","S","Producer","Galena, Pyrite, Sphalerite","","","","","Schist,Pegmatite,Granite","Rhyolite"
"379","Humbug Mines",34.04673,-112.30685,NA,"United States","Yavapai","M","Silver","","Lead, Zinc, Arsenic","Unknown","","S","Producer","Galena, Pyrite, Sphalerite","","","","","Schist,Pegmatite,Granite","Rhyolite"
"380","Martin Mine",36.88029,-109.29512,NA,"United States","Apache","M","Uranium","","","Unknown","","L","Past Producer","Carnotite, Tyuyamunite","","","Geo. Simpson No. 1b Mine","Ore Is Found In Clusters, Usually Associated With Carbonaceous Detritus","Claystone,Siltstone,Sandstone",""
"381","Martin Mine",36.88029,-109.29512,NA,"United States","Apache","M","Vanadium","","","Unknown","","L","Past Producer","Carnotite, Tyuyamunite","","","Geo. Simpson No. 1b Mine","Ore Is Found In Clusters, Usually Associated With Carbonaceous Detritus","Claystone,Siltstone,Sandstone",""
"382","No. 5 Mine",36.89001,-109.27068,NA,"United States","Apache","M","Uranium","","","Unknown","","M","Past Producer","Carnotite, Tyuyamunite","","","","Ore Is Found In Clusters, Usually Associated With Carbonaceous Detritus","Claystone,Siltstone,Sandstone",""
"383","No. 5 Mine",36.89001,-109.27068,NA,"United States","Apache","M","Vanadium","","","Unknown","","M","Past Producer","Carnotite, Tyuyamunite","","","","Ore Is Found In Clusters, Usually Associated With Carbonaceous Detritus","Claystone,Siltstone,Sandstone",""
"384","Wolverine Mine",31.42153,-109.92259,NA,"United States","Cochise","M","Copper","Gold, Silver","","Unknown","Replacement","S","Past Producer","Anglesite, Bornite, Chalcocite, Chalcopyrite, Gold, Silver","Pyrite, Quartz","","Broken Promise","Ore Bodies Near Dikes And Sills, And Faulting And Associated Brecciation","Limestone","Granite"
"385","Wolverine Mine",31.42153,-109.92259,NA,"United States","Cochise","M","Lead","Gold, Silver","","Unknown","Replacement","S","Past Producer","Anglesite, Bornite, Chalcocite, Chalcopyrite, Gold, Silver","Pyrite, Quartz","","Broken Promise","Ore Bodies Near Dikes And Sills, And Faulting And Associated Brecciation","Limestone","Granite"
"386","Wolverine Mine",31.42153,-109.92259,NA,"United States","Cochise","M","Zinc","Gold, Silver","","Unknown","Replacement","S","Past Producer","Anglesite, Bornite, Chalcocite, Chalcopyrite, Gold, Silver","Pyrite, Quartz","","Broken Promise","Ore Bodies Near Dikes And Sills, And Faulting And Associated Brecciation","Limestone","Granite"
"387","Carper Shaft",31.69707,-110.04677,NA,"United States","Cochise","M","Lead","Silver, Gold","","Unknown","Replacement","S","Producer","Galena, Gold, Silver","","","","Largely Oxidized Argentiferous Galena Along A Strong Fault Zone N30-35e, 75w, Intersected By Fissure With Ne Strike, 35se","Quartzite,Shale,Sandstone",""
"388","Rattlesnake No. 1 Mine",36.87002,-109.11873,NA,"United States","Apache","M","Uranium","","","Unknown","","S","Past Producer","Carnotite","","","Shorty Mine","Ore Is Found In Clusters, Usually Associated With Carbonaceous Detritus","Claystone,Siltstone,Sandstone",""
"389","Rattlesnake No. 1 Mine",36.87002,-109.11873,NA,"United States","Apache","M","Vanadium","","","Unknown","","S","Past Producer","Carnotite","","","Shorty Mine","Ore Is Found In Clusters, Usually Associated With Carbonaceous Detritus","Claystone,Siltstone,Sandstone",""
"390","Bettie No. 1 Mine",36.84558,-109.13373,NA,"United States","Apache","M","Uranium","","","Unknown","","S","Past Producer","Carnotite","","","","Ore Is Found In Clusters, Usually Associated With Carbonaceous Detritus","Claystone,Siltstone,Sandstone",""
"391","Bettie No. 1 Mine",36.84558,-109.13373,NA,"United States","Apache","M","Vanadium","","","Unknown","","S","Past Producer","Carnotite","","","","Ore Is Found In Clusters, Usually Associated With Carbonaceous Detritus","Claystone,Siltstone,Sandstone",""
"392","Ruben No. 1 Mine",36.84891,-109.10234,NA,"United States","Apache","M","Uranium","","","Unknown","","S","Past Producer","Carnotite","","","","Ore Is Found In Clusters, Usually Associated With Carbonaceous Detritus","Claystone,Siltstone,Sandstone",""
"393","Ruben No. 1 Mine",36.84891,-109.10234,NA,"United States","Apache","M","Vanadium","","","Unknown","","S","Past Producer","Carnotite","","","","Ore Is Found In Clusters, Usually Associated With Carbonaceous Detritus","Claystone,Siltstone,Sandstone",""
"394","Todakonzie No. 1 Mine",36.84891,-109.09345,NA,"United States","Apache","M","Uranium","","","Unknown","","S","Past Producer","Carnotite","","","","Ore Is Found In Clusters, Usually Associated With Carbonaceous Detritus","Claystone,Siltstone,Sandstone",""
"395","Todakonzie No. 1 Mine",36.84891,-109.09345,NA,"United States","Apache","M","Vanadium","","","Unknown","","S","Past Producer","Carnotite","","","","Ore Is Found In Clusters, Usually Associated With Carbonaceous Detritus","Claystone,Siltstone,Sandstone",""
"396","East Helvetia Deposit",31.83319,-110.75985,NA,"United States","Pima","M","Copper Oxide","Molybdenum","","Unknown","","S","Past Producer","Bornite, Chalcocite, Chalcopyrite, Chrysocolla, Cuprite, Malachite, Molybdenite, Pyrite","Biotite","","Rosemont","Intrusions, Lithology, Limestone Skarns","Quartzite,Limestone","Quartz Monzonite,Quartz Latite"
"397","East Helvetia Deposit",31.83319,-110.75985,NA,"United States","Pima","M","Copper Sulfide","Molybdenum","","Unknown","","S","Past Producer","Bornite, Chalcocite, Chalcopyrite, Chrysocolla, Cuprite, Malachite, Molybdenite, Pyrite","Biotite","","Rosemont","Intrusions, Lithology, Limestone Skarns","Quartzite,Limestone","Quartz Monzonite,Quartz Latite"
"398","Higgins Mine",31.4382,-109.92065,NA,"United States","Cochise","M","Copper","Silver, Gold","Vanadium","Unknown","Replacement","M","Past Producer","Bornite, Chalcocite, Chalcopyrite, Gold, Silver","Pyrite, Quartz","Surface/Underground","Twilight","Ore Bodies Near Dikes And Sills, And Faulting And Associated Brecciation","Limestone","Granite"
"399","Higgins Mine",31.4382,-109.92065,NA,"United States","Cochise","M","Lead","Silver, Gold","Vanadium","Unknown","Replacement","M","Past Producer","Bornite, Chalcocite, Chalcopyrite, Gold, Silver","Pyrite, Quartz","Surface/Underground","Twilight","Ore Bodies Near Dikes And Sills, And Faulting And Associated Brecciation","Limestone","Granite"
"400","Higgins Mine",31.4382,-109.92065,NA,"United States","Cochise","M","Manganese","Silver, Gold","Vanadium","Unknown","Replacement","M","Past Producer","Bornite, Chalcocite, Chalcopyrite, Gold, Silver","Pyrite, Quartz","Surface/Underground","Twilight","Ore Bodies Near Dikes And Sills, And Faulting And Associated Brecciation","Limestone","Granite"
"401","Escapule Mine",31.85096,-109.94233,NA,"United States","Cochise","M","Zinc","","Copper, Gold, Molybdenum, Vanadium","Unknown","","S","Past Producer","Chalcopyrite, Galena, Sphalerite, Vanadinite, Wulfenite","","Underground","Garnet, Moonlight Groups","Ore Occurs In Folded And Faulted Paleozoic Limestone In The Hanging Wall Side Of The Dragoon Fault","Limestone","Quartz Monzonite"
"402","Escapule Mine",31.85096,-109.94233,NA,"United States","Cochise","M","Silver","","Copper, Gold, Molybdenum, Vanadium","Unknown","","S","Past Producer","Chalcopyrite, Galena, Sphalerite, Vanadinite, Wulfenite","","Underground","Garnet, Moonlight Groups","Ore Occurs In Folded And Faulted Paleozoic Limestone In The Hanging Wall Side Of The Dragoon Fault","Limestone","Quartz Monzonite"
"403","Escapule Mine",31.85096,-109.94233,NA,"United States","Cochise","M","Lead","","Copper, Gold, Molybdenum, Vanadium","Unknown","","S","Past Producer","Chalcopyrite, Galena, Sphalerite, Vanadinite, Wulfenite","","Underground","Garnet, Moonlight Groups","Ore Occurs In Folded And Faulted Paleozoic Limestone In The Hanging Wall Side Of The Dragoon Fault","Limestone","Quartz Monzonite"
"404","Voelckel Claims",33.0926,-109.92566,NA,"United States","Graham","M","Manganese","","","Unknown","","N","Occurrence","Manganite, Psilomelane","","Underground","","","Andesite",""
"405","Berkley Mine",31.67791,-111.62681,NA,"United States","Pima","M","Copper","Gold","Lead, Zinc","Unknown","","S","Producer","Pyrite","Quartz","","","","Metasedimentary Rock","Plutonic Rock"
"406","Berkley Mine",31.67791,-111.62681,NA,"United States","Pima","M","Silver","Gold","Lead, Zinc","Unknown","","S","Producer","Pyrite","Quartz","","","","Metasedimentary Rock","Plutonic Rock"
"407","Emmett and Elgin Mine",31.71319,-111.65598,NA,"United States","Pima","M","Gold","Copper, Silver","","Unknown","","S","Producer","","","","","Along Irregular Quartz-Fissure Zone","Metasedimentary Rock","Granite"
"408","Arizona Molybdenum Mine",31.71985,-111.59903,NA,"United States","Pima","M","Molybdenum","","Copper, Gold, Silver, Lead","Unknown","","S","Past Producer","Galena, Molybdenite","Feldspar, Quartz","","Arizona Molybdenum Co.","","Granite","Mafic Intrusive Rock"
"409","Langley Mine",31.38403,-110.68873,NA,"United States","Santa Cruz","M","Lead","Silver, Gold","","Unknown","Replacement","S","Past Producer","","","Underground","Red Rose","Irregular Replacement Bodies Along Contact Between Limestone And Rhyolite","Limestone","Volcanic Rock (Aphanitic)"
"410","Santo Nino Mine",31.36097,-110.71873,NA,"United States","Santa Cruz","M","Silver","Molybdenum, Gold","Lead, Zinc","Underground","","S","Past Producer","Chalcopyrite, Molybdenite, Pyrite","Quartz","","Santa Maria Molybdenum, North Santo Nino, Brooks, North Santo Wind","Quartz Veins In Feldspathoid Zone In Granodiorite","Diorite","Hornblendite"
"411","Santo Nino Mine",31.36097,-110.71873,NA,"United States","Santa Cruz","M","Copper","Molybdenum, Gold","Lead, Zinc","Underground","","S","Past Producer","Chalcopyrite, Molybdenite, Pyrite","Quartz","","Santa Maria Molybdenum, North Santo Nino, Brooks, North Santo Wind","Quartz Veins In Feldspathoid Zone In Granodiorite","Diorite","Hornblendite"
"412","Jim Lee No. 1 Mine",36.84141,-109.09761,NA,"United States","Apache","M","Vanadium","","","Unknown","","S","Past Producer","Carnotite","","","Richard King No. 1 Mine","Ore Is Found In Clusters, Usually Associated With Carbonaceous Detritus","Claystone,Siltstone,Sandstone",""
"413","Jim Lee No. 1 Mine",36.84141,-109.09761,NA,"United States","Apache","M","Uranium","","","Unknown","","S","Past Producer","Carnotite","","","Richard King No. 1 Mine","Ore Is Found In Clusters, Usually Associated With Carbonaceous Detritus","Claystone,Siltstone,Sandstone",""
"414","Ingersol Mine",31.70457,-110.07177,NA,"United States","Cochise","M","Lead","Manganese, Copper, Cadmium","","Unknown","Replacement","S","Past Producer","","","Underground","Bob Ingersol, Blue Monday, Hearst-Hagen Estate","","Limestone",""
"415","Ingersol Mine",31.70457,-110.07177,NA,"United States","Cochise","M","Silver","Manganese, Copper, Cadmium","","Unknown","Replacement","S","Past Producer","","","Underground","Bob Ingersol, Blue Monday, Hearst-Hagen Estate","","Limestone",""
"416","Ingersol Mine",31.70457,-110.07177,NA,"United States","Cochise","M","Zinc","Manganese, Copper, Cadmium","","Unknown","Replacement","S","Past Producer","","","Underground","Bob Ingersol, Blue Monday, Hearst-Hagen Estate","","Limestone",""
"417","Ingersol Mine",31.70457,-110.07177,NA,"United States","Cochise","M","Gold","Manganese, Copper, Cadmium","","Unknown","Replacement","S","Past Producer","","","Underground","Bob Ingersol, Blue Monday, Hearst-Hagen Estate","","Limestone",""
"418","Vizina Lode",31.7118,-110.0676,NA,"United States","Cochise","M","Lead","","","Unknown","Replacement","S","Producer","Chalcopyrite, Gold, Pyrite","","","Vizina Consolidated Mng. Co.","Anticlinal Rolls And ""Northeast"" Fissures.","Limestone",""
"419","Vizina Lode",31.7118,-110.0676,NA,"United States","Cochise","M","Gold","","","Unknown","Replacement","S","Producer","Chalcopyrite, Gold, Pyrite","","","Vizina Consolidated Mng. Co.","Anticlinal Rolls And ""Northeast"" Fissures.","Limestone",""
"420","Vizina Lode",31.7118,-110.0676,NA,"United States","Cochise","M","Silver","","","Unknown","Replacement","S","Producer","Chalcopyrite, Gold, Pyrite","","","Vizina Consolidated Mng. Co.","Anticlinal Rolls And ""Northeast"" Fissures.","Limestone",""
"421","Sherwood Mine",31.99706,-111.86432,NA,"United States","Pima","M","Silver","Gold","","Unknown","","S","Producer","Bornite, Chalcocite, Chalcopyrite, Pyrite","","","Reilly Lode, Green","Vein Along Fault Zone, High Silver Values In Oxidized Zone","Diorite","Diorite"
"422","Sherwood Mine",31.99706,-111.86432,NA,"United States","Pima","M","Copper","Gold","","Unknown","","S","Producer","Bornite, Chalcocite, Chalcopyrite, Pyrite","","","Reilly Lode, Green","Vein Along Fault Zone, High Silver Values In Oxidized Zone","Diorite","Diorite"
"423","Oceanic Mine",31.56985,-111.41263,NA,"United States","Pima","M","Gold","Lead, Copper","Zinc","Unknown","","S","Producer","","","","San Luis Mine","","Clastic Sedimentary Rock","Granite"
"424","Oceanic Mine",31.56985,-111.41263,NA,"United States","Pima","M","Silver","Lead, Copper","Zinc","Unknown","","S","Producer","","","","San Luis Mine","","Clastic Sedimentary Rock","Granite"
"425","Lobos Group",31.6443,-111.67237,NA,"United States","Pima","M","Uranium","Copper","","Unknown","","N","Occurrence","","Epidote","","","Best Radioactivity Along Fractures And Walls Of Vein.  Also Within Mica Schist","Quartzite","Andesite"
"426","Arivaca Creek Placers",31.59152,-111.35902,NA,"United States","Pima","M","Gold","Silver","Tungsten, Mercury","Unknown","","S","Past Producer","Gold","Cinnabar, Wolframite","","","At Or Near Bedrock.","Gravel,Sand and Gravel",""
"427","Liberty Mine",31.69402,-111.31986,NA,"United States","Pima","M","Silver","Gold, Lead, Copper","","Unknown","","S","Producer","","","","","","Andesite",""
"428","San Luis Wash Placers",31.55985,-111.41486,NA,"United States","Pima","M","Gold","","Silver","Unknown","","S","Producer","Gold","","","","","Gravel,Alluvium",""
"429","Shamrock Mine",31.55985,-111.34319,NA,"United States","Pima","M","Lead","","Uranium","Unknown","","S","Producer","Galena, Smithsonite","Barite, Limonite, Quartz","Underground","","","Rhyolite",""
"430","Shamrock Mine",31.55985,-111.34319,NA,"United States","Pima","M","Silver","","Uranium","Unknown","","S","Producer","Galena, Smithsonite","Barite, Limonite, Quartz","Underground","","","Rhyolite",""
"431","El Conquistadors Claims",31.96901,-111.5082,NA,"United States","Pima","M","Uranium","","","Unknown","","N","Occurrence","","","","","","Gneiss","Gneiss"
"432","M.C.M. Mine Group",31.53735,-111.33458,NA,"United States","Pima","M","Silver","Copper, Gold","Zinc","Unknown","","S","Past Producer","Chalcopyrite, Pyrite, Sphalerite","","","Guadalupe Group","","Metasedimentary Rock","Granite"
"433","M.C.M. Mine Group",31.53735,-111.33458,NA,"United States","Pima","M","Lead","Copper, Gold","Zinc","Unknown","","S","Past Producer","Chalcopyrite, Pyrite, Sphalerite","","","Guadalupe Group","","Metasedimentary Rock","Granite"
"434","Long Shot Mine Group",31.54457,-111.34319,NA,"United States","Pima","M","Silver","Copper, Gold","Zinc","Unknown","","S","Producer","","","","","","Metasedimentary Rock","Granite"
"435","Long Shot Mine Group",31.54457,-111.34319,NA,"United States","Pima","M","Lead","Copper, Gold","Zinc","Unknown","","S","Producer","","","","","","Metasedimentary Rock","Granite"
"436","Squaw Peak Mine",34.48255,-111.85712,NA,"United States","Yavapai","M","Molybdenum","Silver, Lead, Zinc","","Unknown","Porphyry Cu-Mo","S","Past Producer","Bornite, Chalcopyrite, Malachite, Molybdenite, Sphalerite","Ankerite, Pyrite, Quartz","Underground","","Igneous Rocks, Fractures, Faulting","Quartz Monzonite,Granodiorite",""
"437","Squaw Peak Mine",34.48255,-111.85712,NA,"United States","Yavapai","M","Copper","Silver, Lead, Zinc","","Unknown","Porphyry Cu-Mo","S","Past Producer","Bornite, Chalcopyrite, Malachite, Molybdenite, Sphalerite","Ankerite, Pyrite, Quartz","Underground","","Igneous Rocks, Fractures, Faulting","Quartz Monzonite,Granodiorite",""
"438","Congress Extension Mine",34.20227,-112.85992,NA,"United States","Yavapai","M","Gold","","Copper","Unknown","","S","Past Producer","Chalcopyrite, Pyrite","Quartz","Underground","Senate Mine","Faulting, Shearing, Igneous Activity","Granite","Mafic Intrusive Rock,Diorite,Andesite"
"439","Black Butte Prospect",34.02034,-112.47824,NA,"United States","Yavapai","M","Tungsten","","","Unknown","","N","Occurrence","Hollandite, Psilomelane, Pyrolusite, Scheelite","Calcite, Garnet, Quartz","Surface/Underground","Pand G, Dugan, Castle Butte","","Schist,Andesite","Pegmatite"
"440","Black Butte Prospect",34.02034,-112.47824,NA,"United States","Yavapai","M","Manganese","","","Unknown","","N","Occurrence","Hollandite, Psilomelane, Pyrolusite, Scheelite","Calcite, Garnet, Quartz","Surface/Underground","Pand G, Dugan, Castle Butte","","Schist,Andesite","Pegmatite"
"441","Mammoth Mine",34.56643,-113.24549,NA,"United States","Yavapai","M","Copper","Silver, Gold","Molybdenum, Uranium, Thorium","Unknown","","N","Occurrence","Chalcanthite, Chalcopyrite, Chrysocolla, Cuprite, Gold, Malachite, Molybdenite, Pyrite, Silver","Quartz","Underground","Hubbard","Breccia Pipe","Quartz Monzonite,Diorite,Rhyolite","Quartz Monzonite,Diorite,Rhyolite"
"442","Money Metals Mine",34.43755,-112.38657,NA,"United States","Yavapai","M","Gold","Zinc, Copper","Uranium, Vanadium","Unknown","","S","Past Producer","Chalcopyrite, Galena, Metahewettite, Sphalerite, Tyuyamunite","Quartz","Surface/Underground","Snow Drift, Snowdrift","Faulting, Shearing","Diorite","Rhyolite"
"443","Money Metals Mine",34.43755,-112.38657,NA,"United States","Yavapai","M","Silver","Zinc, Copper","Uranium, Vanadium","Unknown","","S","Past Producer","Chalcopyrite, Galena, Metahewettite, Sphalerite, Tyuyamunite","Quartz","Surface/Underground","Snow Drift, Snowdrift","Faulting, Shearing","Diorite","Rhyolite"
"444","Money Metals Mine",34.43755,-112.38657,NA,"United States","Yavapai","M","Lead","Zinc, Copper","Uranium, Vanadium","Unknown","","S","Past Producer","Chalcopyrite, Galena, Metahewettite, Sphalerite, Tyuyamunite","Quartz","Surface/Underground","Snow Drift, Snowdrift","Faulting, Shearing","Diorite","Rhyolite"
"445","Oro Belle Mine",34.17062,-112.34574,NA,"United States","Yavapai","M","Gold","Copper, Silver","","Unknown","Vein","S","Producer","","Quartz","Underground","Orobelle-Gray Eagle","Faulting","Slate,Quartzite,Schist","Quartz Monzonite"
"446","Midnight Test Mine",34.47394,-112.40268,NA,"United States","Yavapai","M","Gold","Copper, Silver, Lead","Zinc","Unknown","","S","Producer","Galena, Gold, Sphalerite","Quartz","Underground","National Gold","Faulting, Igneous Activity, Especially Dike Emplacment","Slate,Meta-Basalt,Rhyolite","Rhyolite,Basalt"
"447","Hassayampa Placers",34.46033,-112.49214,NA,"United States","Yavapai","M","Gold","","","Unknown","","S","Producer","Gold","","","","","Gravel",""
"448","Golden Slipper Mine",33.95506,-112.5088,NA,"United States","Yavapai","M","Gold","Copper, Silver","","Unknown","","S","Producer","Gold","Calcite, Quartz","Underground","","Faulting, Shearing","Tuff,Rhyolite,Dacite","Tuff,Rhyolite,Dacite"
"449","Tungstona Mine",34.62976,-113.15521,NA,"United States","Yavapai","M","Tungsten","","Bismuth, Molybdenum, Vanadium, Lead, Beryllium","Unknown","Vein","S","Producer","Lead, Scheelite, Wolframite","","Underground","Tungsten","Quartz Veins In Granite","Granite","Granite"
